Time(s),Longitude(deg),Latitude(deg),Altitude(m),NorthVelocity(m/s),UpVelocity(m/s),EastVelocity(m/s),GForce,Pitch(deg),Roll(deg),Yaw(deg),AircraftType
0.000000,120.000000,30.000000,10000.000000,350.000000,0.000000,0.000000,1.000000,0.000000,0.000000,0.000000,F-22
0.010000,120.000000,30.000000,10000.000000,350.000000,0.000000,0.000000,1.000000,0.000000,0.000000,0.000000,F-22
0.020000,120.000000,30.000000,10000.000000,350.000000,0.000000,0.000000,1.000000,0.000000,0.000000,0.000000,F-22
0.030000,120.000000,30.000000,10000.000000,350.000000,0.000000,0.000000,1.000000,0.000000,0.000000,0.000000,F-22
0.040000,120.000000,30.000000,10000.000000,350.000000,0.000000,0.000000,1.000000,0.000000,0.000000,0.000000,F-22
0.050000,120.000000,30.000000,10000.000000,350.000000,0.000000,0.000000,1.000000,0.000000,0.000000,0.000000,F-22
0.060000,120.000000,30.000000,10000.000000,350.000000,0.000000,0.000000,1.000000,0.000000,0.000000,0.000000,F-22
0.070000,120.000000,30.000000,10000.000000,350.000000,0.000000,0.000000,1.000000,0.000000,0.000000,0.000000,F-22
0.080000,120.000000,30.000000,10000.000000,350.000000,0.000000,0.000000,1.000000,0.000000,0.000000,0.000000,F-22
0.090000,120.000000,30.000000,10000.000000,350.000000,0.000000,0.000000,1.000000,0.000000,0.000000,0.000000,F-22
0.100000,120.000000,30.000000,10000.000000,350.000000,0.000000,0.000000,1.000000,0.000000,0.000000,0.000000,F-22
0.110000,120.000000,30.000000,10000.000000,350.000000,0.000000,0.000000,1.000000,0.000000,0.000000,0.000000,F-22
0.120000,120.000000,30.000000,10000.000000,350.000000,0.000000,0.000000,1.000000,0.000000,0.000000,0.000000,F-22
0.130000,120.000000,30.000000,10000.000000,350.000000,0.000000,0.000000,1.000000,0.000000,0.000000,0.000000,F-22
0.140000,120.000000,30.000000,10000.000000,350.000000,0.000000,0.000000,1.000000,0.000000,0.000000,0.000000,F-22
0.150000,120.000000,30.000000,10000.000000,350.000000,0.000000,0.000000,1.000000,0.000000,0.000000,0.000000,F-22
0.160000,120.000000,30.000000,10000.000000,350.000000,0.000000,0.000000,1.000000,0.000000,0.000000,0.000000,F-22
0.170000,120.000000,30.000000,10000.000000,350.000000,0.000000,0.000000,1.000000,0.000000,0.000000,0.000000,F-22
0.180000,120.000000,30.000000,10000.000000,350.000000,0.000000,0.000000,1.000000,0.000000,0.000000,0.000000,F-22
0.190000,120.000000,30.000000,10000.000000,350.000000,0.000000,0.000000,1.000000,0.000000,0.000000,0.000000,F-22
0.200000,120.000000,30.000000,10000.000000,350.000000,0.000000,0.000000,1.000000,0.000000,0.000000,0.000000,F-22
0.210000,120.000000,30.000000,10000.000000,350.000000,0.000000,0.000000,1.000000,0.000000,0.000000,0.000000,F-22
0.220000,120.000000,30.000000,10000.000000,350.000000,0.000000,0.000000,1.000000,0.000000,0.000000,0.000000,F-22
0.230000,120.000000,30.000000,10000.000000,350.000000,0.000000,0.000000,1.000000,0.000000,0.000000,0.000000,F-22
0.240000,120.000000,30.000000,10000.000000,350.000000,0.000000,0.000000,1.000000,0.000000,0.000000,0.000000,F-22
0.250000,120.000000,30.000000,10000.000000,350.000000,0.000000,0.000000,1.000000,0.000000,0.000000,0.000000,F-22
0.260000,120.000000,30.000000,10000.000000,350.000000,0.000000,0.000000,1.000000,0.000000,0.000000,0.000000,F-22
0.270000,120.000000,30.000000,10000.000000,350.000000,0.000000,0.000000,1.000000,0.000000,0.000000,0.000000,F-22
0.280000,120.000000,30.000000,10000.000000,350.000000,0.000000,0.000000,1.000000,0.000000,0.000000,0.000000,F-22
0.290000,120.000000,30.000000,10000.000000,350.000000,0.000000,0.000000,1.000000,0.000000,0.000000,0.000000,F-22
0.300000,120.000000,30.000000,10000.000000,350.000000,0.000000,0.000000,1.000000,0.000000,0.000000,0.000000,F-22
0.310000,120.000000,30.000000,10000.000000,350.000000,0.000000,0.000000,1.000000,0.000000,0.000000,0.000000,F-22
0.320000,120.000000,30.000000,10000.000000,350.000000,0.000000,0.000000,1.000000,0.000000,0.000000,0.000000,F-22
0.330000,120.000000,30.000000,10000.000000,350.000000,0.000000,0.000000,1.000000,0.000000,0.000000,0.000000,F-22
0.340000,120.000000,30.000000,10000.000000,350.000000,0.000000,0.000000,1.000000,0.000000,0.000000,0.000000,F-22
0.350000,120.000000,30.000000,10000.000000,350.000000,0.000000,0.000000,1.000000,0.000000,0.000000,0.000000,F-22
0.360000,120.000000,30.000000,10000.000000,350.000000,0.000000,0.000000,1.000000,0.000000,0.000000,0.000000,F-22
0.370000,120.000000,30.000000,10000.000000,350.000000,0.000000,0.000000,1.000000,0.000000,0.000000,0.000000,F-22
0.380000,120.000000,30.000000,10000.000000,350.000000,0.000000,0.000000,1.000000,0.000000,0.000000,0.000000,F-22
0.390000,120.000000,30.000000,10000.000000,350.000000,0.000000,0.000000,1.000000,0.000000,0.000000,0.000000,F-22
0.400000,120.000000,30.000000,10000.000000,350.000000,0.000000,0.000000,1.000000,0.000000,0.000000,0.000000,F-22
0.410000,120.000000,30.000000,10000.000000,350.000000,0.000000,0.000000,1.000000,0.000000,0.000000,0.000000,F-22
0.420000,120.000000,30.000000,10000.000000,350.000000,0.000000,0.000000,1.000000,0.000000,0.000000,0.000000,F-22
0.430000,120.000000,30.000000,10000.000000,350.000000,0.000000,0.000000,1.000000,0.000000,0.000000,0.000000,F-22
0.440000,120.000000,30.000000,10000.000000,350.000000,0.000000,0.000000,1.000000,0.000000,0.000000,0.000000,F-22
0.450000,120.000000,30.000000,10000.000000,350.000000,0.000000,0.000000,1.000000,0.000000,0.000000,0.000000,F-22
0.460000,120.000000,30.000000,10000.000000,350.000000,0.000000,0.000000,1.000000,0.000000,0.000000,0.000000,F-22
0.470000,120.000000,30.000000,10000.000000,350.000000,0.000000,0.000000,1.000000,0.000000,0.000000,0.000000,F-22
0.480000,120.000000,30.000000,10000.000000,350.000000,0.000000,0.000000,1.000000,0.000000,0.000000,0.000000,F-22
0.490000,120.000000,30.000000,10000.000000,350.000000,0.000000,0.000000,1.000000,0.000000,0.000000,0.000000,F-22
0.500000,120.000000,30.000000,10000.000000,350.000000,0.000000,0.000000,1.000000,0.000000,0.000000,0.000000,F-22
0.510000,120.000000,30.000000,10000.000000,350.000000,0.000000,0.000000,1.000000,0.000000,0.000000,0.000000,F-22
0.520000,120.000000,30.000000,10000.000000,350.000000,0.000000,0.000000,1.000000,0.000000,0.000000,0.000000,F-22
0.530000,120.000000,30.000000,10000.000000,350.000000,0.000000,0.000000,1.000000,0.000000,0.000000,0.000000,F-22
0.540000,120.000000,30.000000,10000.000000,350.000000,0.000000,0.000000,1.000000,0.000000,0.000000,0.000000,F-22
0.550000,120.000000,30.000000,10000.000000,350.000000,0.000000,0.000000,1.000000,0.000000,0.000000,0.000000,F-22
0.560000,120.000000,30.000000,10000.000000,350.000000,0.000000,0.000000,1.000000,0.000000,0.000000,0.000000,F-22
0.570000,120.000000,30.000000,10000.000000,350.000000,0.000000,0.000000,1.000000,0.000000,0.000000,0.000000,F-22
0.580000,120.000000,30.000000,10000.000000,350.000000,0.000000,0.000000,1.000000,0.000000,0.000000,0.000000,F-22
0.590000,120.000000,30.000000,10000.000000,350.000000,0.000000,0.000000,1.000000,0.000000,0.000000,0.000000,F-22
0.600000,120.000000,30.000000,10000.000000,350.000000,0.000000,0.000000,1.000000,0.000000,0.000000,0.000000,F-22
0.610000,120.000000,30.000000,10000.000000,350.000000,0.000000,0.000000,1.000000,0.000000,0.000000,0.000000,F-22
0.620000,120.000000,30.000000,10000.000000,350.000000,0.000000,0.000000,1.000000,0.000000,0.000000,0.000000,F-22
0.630000,120.000000,30.000000,10000.000000,350.000000,0.000000,0.000000,1.000000,0.000000,0.000000,0.000000,F-22
0.640000,120.000000,30.000000,10000.000000,350.000000,0.000000,0.000000,1.000000,0.000000,0.000000,0.000000,F-22
0.650000,120.000000,30.000000,10000.000000,350.000000,0.000000,0.000000,1.000000,0.000000,0.000000,0.000000,F-22
0.660000,120.000000,30.000000,10000.000000,350.000000,0.000000,0.000000,1.000000,0.000000,0.000000,0.000000,F-22
0.670000,120.000000,30.000000,10000.000000,350.000000,0.000000,0.000000,1.000000,0.000000,0.000000,0.000000,F-22
0.680000,120.000000,30.000000,10000.000000,350.000000,0.000000,0.000000,1.000000,0.000000,0.000000,0.000000,F-22
0.690000,120.000000,30.000000,10000.000000,350.000000,0.000000,0.000000,1.000000,0.000000,0.000000,0.000000,F-22
0.700000,120.000000,30.000000,10000.000000,350.000000,0.000000,0.000000,1.000000,0.000000,0.000000,0.000000,F-22
0.710000,120.000000,30.000000,10000.000000,350.000000,0.000000,0.000000,1.000000,0.000000,0.000000,0.000000,F-22
0.720000,120.000000,30.000000,10000.000000,350.000000,0.000000,0.000000,1.000000,0.000000,0.000000,0.000000,F-22
0.730000,120.000000,30.000000,10000.000000,350.000000,0.000000,0.000000,1.000000,0.000000,0.000000,0.000000,F-22
0.740000,120.000000,30.000000,10000.000000,350.000000,0.000000,0.000000,1.000000,0.000000,0.000000,0.000000,F-22
0.750000,120.000000,30.000000,10000.000000,350.000000,0.000000,0.000000,1.000000,0.000000,0.000000,0.000000,F-22
0.760000,120.000000,30.000000,10000.000000,350.000000,0.000000,0.000000,1.000000,0.000000,0.000000,0.000000,F-22
0.770000,120.000000,30.000000,10000.000000,350.000000,0.000000,0.000000,1.000000,0.000000,0.000000,0.000000,F-22
0.780000,120.000000,30.000000,10000.000000,350.000000,0.000000,0.000000,1.000000,0.000000,0.000000,0.000000,F-22
0.790000,120.000000,30.000000,10000.000000,350.000000,0.000000,0.000000,1.000000,0.000000,0.000000,0.000000,F-22
0.800000,120.000000,30.000000,10000.000000,350.000000,0.000000,0.000000,1.000000,0.000000,0.000000,0.000000,F-22
0.810000,120.000000,30.000000,10000.000000,350.000000,0.000000,0.000000,1.000000,0.000000,0.000000,0.000000,F-22
0.820000,120.000000,30.000000,10000.000000,350.000000,0.000000,0.000000,1.000000,0.000000,0.000000,0.000000,F-22
0.830000,120.000000,30.000000,10000.000000,350.000000,0.000000,0.000000,1.000000,0.000000,0.000000,0.000000,F-22
0.840000,120.000000,30.000000,10000.000000,350.000000,0.000000,0.000000,1.000000,0.000000,0.000000,0.000000,F-22
0.850000,120.000000,30.000000,10000.000000,350.000000,0.000000,0.000000,1.000000,0.000000,0.000000,0.000000,F-22
0.860000,120.000000,30.000000,10000.000000,350.000000,0.000000,0.000000,1.000000,0.000000,0.000000,0.000000,F-22
0.870000,120.000000,30.000000,10000.000000,350.000000,0.000000,0.000000,1.000000,0.000000,0.000000,0.000000,F-22
0.880000,120.000000,30.000000,10000.000000,350.000000,0.000000,0.000000,1.000000,0.000000,0.000000,0.000000,F-22
0.890000,120.000000,30.000000,10000.000000,350.000000,0.000000,0.000000,1.000000,0.000000,0.000000,0.000000,F-22
0.900000,120.000000,30.000000,10000.000000,350.000000,0.000000,0.000000,1.000000,0.000000,0.000000,0.000000,F-22
0.910000,120.000000,30.000000,10000.000000,350.000000,0.000000,0.000000,1.000000,0.000000,0.000000,0.000000,F-22
0.920000,120.000000,30.000000,10000.000000,350.000000,0.000000,0.000000,1.000000,0.000000,0.000000,0.000000,F-22
0.930000,120.000000,30.000000,10000.000000,350.000000,0.000000,0.000000,1.000000,0.000000,0.000000,0.000000,F-22
0.940000,120.000000,30.000000,10000.000000,350.000000,0.000000,0.000000,1.000000,0.000000,0.000000,0.000000,F-22
0.950000,120.000000,30.000000,10000.000000,350.000000,0.000000,0.000000,1.000000,0.000000,0.000000,0.000000,F-22
0.960000,120.000000,30.000000,10000.000000,350.000000,0.000000,0.000000,1.000000,0.000000,0.000000,0.000000,F-22
0.970000,120.000000,30.000000,10000.000000,350.000000,0.000000,0.000000,1.000000,0.000000,0.000000,0.000000,F-22
0.980000,120.000000,30.000000,10000.000000,350.000000,0.000000,0.000000,1.000000,0.000000,0.000000,0.000000,F-22
0.990000,120.000000,30.000000,10000.000000,350.000000,0.000000,0.000000,1.000000,0.000000,0.000000,0.000000,F-22
1.000000,120.000000,30.000031,10000.000000,350.000000,0.000000,0.000000,1.000000,0.000000,63.434949,0.000000,F-22
1.010000,120.000000,30.000063,10000.000000,349.999945,0.000000,0.196200,1.002000,0.000000,63.434949,0.032118,F-22
1.020000,120.000000,30.000094,10000.000000,349.999780,0.000000,0.392400,1.004000,0.000000,63.434949,0.064237,F-22
1.030000,120.000000,30.000126,10000.000000,349.999505,0.000000,0.588600,1.006000,0.000000,63.434949,0.096355,F-22
1.040000,120.000000,30.000157,10000.000000,349.999120,0.000000,0.784799,1.008000,0.000000,63.434949,0.128474,F-22
1.050000,120.000000,30.000188,10000.000000,349.998625,0.000000,0.980999,1.010000,0.000000,63.434949,0.160592,F-22
1.060000,120.000000,30.000220,10000.000000,349.998020,0.000000,1.177198,1.012000,0.000000,63.434949,0.192710,F-22
1.070000,120.000001,30.000251,10000.000000,349.997305,0.000000,1.373396,1.014000,0.000000,63.434949,0.224829,F-22
1.080000,120.000001,30.000283,10000.000000,349.996481,0.000000,1.569595,1.016000,0.000000,63.434949,0.256947,F-22
1.090000,120.000001,30.000314,10000.000000,349.995546,0.000000,1.765793,1.018000,0.000000,63.434949,0.289065,F-22
1.100000,120.000001,30.000345,10000.000000,349.994501,0.000000,1.961990,1.020000,0.000000,63.434949,0.321184,F-22
1.110000,120.000001,30.000377,10000.000000,349.993346,0.000000,2.158186,1.022000,0.000000,63.434949,0.353302,F-22
1.120000,120.000002,30.000408,10000.000000,349.992081,0.000000,2.354382,1.024000,0.000000,63.434949,0.385421,F-22
1.130000,120.000002,30.000439,10000.000000,349.990706,0.000000,2.550577,1.026000,0.000000,63.434949,0.417539,F-22
1.140000,120.000002,30.000471,10000.000000,349.989222,0.000000,2.746772,1.028000,0.000000,63.434949,0.449657,F-22
1.150000,120.000002,30.000502,10000.000000,349.987627,0.000000,2.942965,1.030000,0.000000,63.434949,0.481776,F-22
1.160000,120.000003,30.000534,10000.000000,349.985922,0.000000,3.139158,1.032000,0.000000,63.434949,0.513894,F-22
1.170000,120.000003,30.000565,10000.000000,349.984107,0.000000,3.335350,1.034000,0.000000,63.434949,0.546012,F-22
1.180000,120.000003,30.000596,10000.000000,349.982183,0.000000,3.531540,1.036000,0.000000,63.434949,0.578131,F-22
1.190000,120.000004,30.000628,10000.000000,349.980148,0.000000,3.727730,1.038000,0.000000,63.434949,0.610249,F-22
1.200000,120.000004,30.000659,10000.000000,349.978003,0.000000,3.923918,1.040000,0.000000,63.434949,0.642368,F-22
1.210000,120.000005,30.000691,10000.000000,349.975749,0.000000,4.120105,1.042000,0.000000,63.434949,0.674486,F-22
1.220000,120.000005,30.000722,10000.000000,349.973384,0.000000,4.316291,1.044000,0.000000,63.434949,0.706604,F-22
1.230000,120.000006,30.000753,10000.000000,349.970910,0.000000,4.512475,1.046000,0.000000,63.434949,0.738723,F-22
1.240000,120.000006,30.000785,10000.000000,349.968325,0.000000,4.708658,1.048000,0.000000,63.434949,0.770841,F-22
1.250000,120.000007,30.000816,10000.000000,349.965631,0.000000,4.904839,1.050000,0.000000,63.434949,0.802959,F-22
1.260000,120.000007,30.000848,10000.000000,349.962826,0.000000,5.101019,1.052000,0.000000,63.434949,0.835078,F-22
1.270000,120.000008,30.000879,10000.000000,349.959912,0.000000,5.297198,1.054000,0.000000,63.434949,0.867196,F-22
1.280000,120.000008,30.000910,10000.000000,349.956887,0.000000,5.493374,1.056000,0.000000,63.434949,0.899315,F-22
1.290000,120.000009,30.000942,10000.000000,349.953753,0.000000,5.689549,1.058000,0.000000,63.434949,0.931433,F-22
1.300000,120.000009,30.000973,10000.000000,349.950508,0.000000,5.885723,1.060000,0.000000,63.434949,0.963551,F-22
1.310000,120.000010,30.001004,10000.000000,349.947154,0.000000,6.081894,1.062000,0.000000,63.434949,0.995670,F-22
1.320000,120.000011,30.001036,10000.000000,349.943690,0.000000,6.278063,1.064000,0.000000,63.434949,1.027788,F-22
1.330000,120.000011,30.001067,10000.000000,349.940115,0.000000,6.474231,1.066000,0.000000,63.434949,1.059906,F-22
1.340000,120.000012,30.001099,10000.000000,349.936431,0.000000,6.670396,1.068000,0.000000,63.434949,1.092025,F-22
1.350000,120.000013,30.001130,10000.000000,349.932637,0.000000,6.866559,1.070000,0.000000,63.434949,1.124143,F-22
1.360000,120.000014,30.001161,10000.000000,349.928733,0.000000,7.062721,1.072000,0.000000,63.434949,1.156262,F-22
1.370000,120.000014,30.001193,10000.000000,349.924719,0.000000,7.258880,1.074000,0.000000,63.434949,1.188380,F-22
1.380000,120.000015,30.001224,10000.000000,349.920594,0.000000,7.455036,1.076000,0.000000,63.434949,1.220498,F-22
1.390000,120.000016,30.001256,10000.000000,349.916360,0.000000,7.651190,1.078000,0.000000,63.434949,1.252617,F-22
1.400000,120.000017,30.001287,10000.000000,349.912016,0.000000,7.847342,1.080000,0.000000,63.434949,1.284735,F-22
1.410000,120.000017,30.001318,10000.000000,349.907562,0.000000,8.043492,1.082000,0.000000,63.434949,1.316853,F-22
1.420000,120.000018,30.001350,10000.000000,349.902998,0.000000,8.239639,1.084000,0.000000,63.434949,1.348972,F-22
1.430000,120.000019,30.001381,10000.000000,349.898325,0.000000,8.435783,1.086000,0.000000,63.434949,1.381090,F-22
1.440000,120.000020,30.001412,10000.000000,349.893541,0.000000,8.631925,1.088000,0.000000,63.434949,1.413209,F-22
1.450000,120.000021,30.001444,10000.000000,349.888647,0.000000,8.828064,1.090000,0.000000,63.434949,1.445327,F-22
1.460000,120.000022,30.001475,10000.000000,349.883643,0.000000,9.024200,1.092000,0.000000,63.434949,1.477445,F-22
1.470000,120.000023,30.001507,10000.000000,349.878530,0.000000,9.220333,1.094000,0.000000,63.434949,1.509564,F-22
1.480000,120.000024,30.001538,10000.000000,349.873306,0.000000,9.416464,1.096000,0.000000,63.434949,1.541682,F-22
1.490000,120.000025,30.001569,10000.000000,349.867972,0.000000,9.612591,1.098000,0.000000,63.434949,1.573800,F-22
1.500000,120.000026,30.001601,10000.000000,349.862529,0.000000,9.808716,1.100000,0.000000,63.434949,1.605919,F-22
1.510000,120.000027,30.001632,10000.000000,349.856975,0.000000,10.004837,1.102000,0.000000,63.434949,1.638037,F-22
1.520000,120.000028,30.001664,10000.000000,349.851312,0.000000,10.200955,1.104000,0.000000,63.434949,1.670156,F-22
1.530000,120.000029,30.001695,10000.000000,349.845539,0.000000,10.397070,1.106000,0.000000,63.434949,1.702274,F-22
1.540000,120.000030,30.001726,10000.000000,349.839655,0.000000,10.593182,1.108000,0.000000,63.434949,1.734392,F-22
1.550000,120.000031,30.001758,10000.000000,349.833662,0.000000,10.789290,1.110000,0.000000,63.434949,1.766511,F-22
1.560000,120.000032,30.001789,10000.000000,349.827559,0.000000,10.985396,1.112000,0.000000,63.434949,1.798629,F-22
1.570000,120.000034,30.001820,10000.000000,349.821346,0.000000,11.181497,1.114000,0.000000,63.434949,1.830747,F-22
1.580000,120.000035,30.001852,10000.000000,349.815023,0.000000,11.377595,1.116000,0.000000,63.434949,1.862866,F-22
1.590000,120.000036,30.001883,10000.000000,349.808590,0.000000,11.573690,1.118000,0.000000,63.434949,1.894984,F-22
1.600000,120.000037,30.001915,10000.000000,349.802047,0.000000,11.769781,1.120000,0.000000,63.434949,1.927103,F-22
1.610000,120.000038,30.001946,10000.000000,349.795394,0.000000,11.965868,1.122000,0.000000,63.434949,1.959221,F-22
1.620000,120.000040,30.001977,10000.000000,349.788632,0.000000,12.161951,1.124000,0.000000,63.434949,1.991339,F-22
1.630000,120.000041,30.002009,10000.000000,349.781759,0.000000,12.358031,1.126000,0.000000,63.434949,2.023458,F-22
1.640000,120.000042,30.002040,10000.000000,349.774777,0.000000,12.554106,1.128000,0.000000,63.434949,2.055576,F-22
1.650000,120.000044,30.002071,10000.000000,349.767684,0.000000,12.750178,1.130000,0.000000,63.434949,2.087695,F-22
1.660000,120.000045,30.002103,10000.000000,349.760482,0.000000,12.946246,1.132000,0.000000,63.434949,2.119813,F-22
1.670000,120.000046,30.002134,10000.000000,349.753170,0.000000,13.142310,1.134000,0.000000,63.434949,2.151931,F-22
1.680000,120.000048,30.002166,10000.000000,349.745748,0.000000,13.338369,1.136000,0.000000,63.434949,2.184050,F-22
1.690000,120.000049,30.002197,10000.000000,349.738215,0.000000,13.534425,1.138000,0.000000,63.434949,2.216168,F-22
1.700000,120.000050,30.002228,10000.000000,349.730573,0.000000,13.730476,1.140000,0.000000,63.434949,2.248286,F-22
1.710000,120.000052,30.002260,10000.000000,349.722822,0.000000,13.926523,1.142000,0.000000,63.434949,2.280405,F-22
1.720000,120.000053,30.002291,10000.000000,349.714960,0.000000,14.122565,1.144000,0.000000,63.434949,2.312523,F-22
1.730000,120.000055,30.002322,10000.000000,349.706988,0.000000,14.318603,1.146000,0.000000,63.434949,2.344642,F-22
1.740000,120.000056,30.002354,10000.000000,349.698907,0.000000,14.514636,1.148000,0.000000,63.434949,2.376760,F-22
1.750000,120.000058,30.002385,10000.000000,349.690715,0.000000,14.710665,1.150000,0.000000,63.434949,2.408878,F-22
1.760000,120.000059,30.002416,10000.000000,349.682414,0.000000,14.906690,1.152000,0.000000,63.434949,2.440997,F-22
1.770000,120.000061,30.002448,10000.000000,349.674003,0.000000,15.102709,1.154000,0.000000,63.434949,2.473115,F-22
1.780000,120.000063,30.002479,10000.000000,349.665482,0.000000,15.298724,1.156000,0.000000,63.434949,2.505233,F-22
1.790000,120.000064,30.002511,10000.000000,349.656851,0.000000,15.494734,1.158000,0.000000,63.434949,2.537352,F-22
1.800000,120.000066,30.002542,10000.000000,349.648110,0.000000,15.690739,1.160000,0.000000,63.434949,2.569470,F-22
1.810000,120.000067,30.002573,10000.000000,349.639259,0.000000,15.886740,1.162000,0.000000,63.434949,2.601589,F-22
1.820000,120.000069,30.002605,10000.000000,349.630299,0.000000,16.082735,1.164000,0.000000,63.434949,2.633707,F-22
1.830000,120.000071,30.002636,10000.000000,349.621228,0.000000,16.278725,1.166000,0.000000,63.434949,2.665825,F-22
1.840000,120.000073,30.002667,10000.000000,349.612048,0.000000,16.474710,1.168000,0.000000,63.434949,2.697944,F-22
1.850000,120.000074,30.002699,10000.000000,349.602758,0.000000,16.670690,1.170000,0.000000,63.434949,2.730062,F-22
1.860000,120.000076,30.002730,10000.000000,349.593358,0.000000,16.866665,1.172000,0.000000,63.434949,2.762180,F-22
1.870000,120.000078,30.002761,10000.000000,349.583848,0.000000,17.062634,1.174000,0.000000,63.434949,2.794299,F-22
1.880000,120.000080,30.002793,10000.000000,349.574228,0.000000,17.258598,1.176000,0.000000,63.434949,2.826417,F-22
1.890000,120.000081,30.002824,10000.000000,349.564498,0.000000,17.454557,1.178000,0.000000,63.434949,2.858536,F-22
1.900000,120.000083,30.002855,10000.000000,349.554659,0.000000,17.650510,1.180000,0.000000,63.434949,2.890654,F-22
1.910000,120.000085,30.002887,10000.000000,349.544710,0.000000,17.846458,1.182000,0.000000,63.434949,2.922772,F-22
1.920000,120.000087,30.002918,10000.000000,349.534650,0.000000,18.042400,1.184000,0.000000,63.434949,2.954891,F-22
1.930000,120.000089,30.002949,10000.000000,349.524481,0.000000,18.238336,1.186000,0.000000,63.434949,2.987009,F-22
1.940000,120.000091,30.002981,10000.000000,349.514203,0.000000,18.434266,1.188000,0.000000,63.434949,3.019127,F-22
1.950000,120.000093,30.003012,10000.000000,349.503814,0.000000,18.630191,1.190000,0.000000,63.434949,3.051246,F-22
1.960000,120.000095,30.003044,10000.000000,349.493316,0.000000,18.826110,1.192000,0.000000,63.434949,3.083364,F-22
1.970000,120.000097,30.003075,10000.000000,349.482707,0.000000,19.022023,1.194000,0.000000,63.434949,3.115483,F-22
1.980000,120.000099,30.003106,10000.000000,349.471989,0.000000,19.217930,1.196000,0.000000,63.434949,3.147601,F-22
1.990000,120.000101,30.003138,10000.000000,349.461161,0.000000,19.413831,1.198000,0.000000,63.434949,3.179719,F-22
2.000000,120.000103,30.003169,10000.000000,349.450223,0.000000,19.609726,1.200000,0.000000,63.434949,3.211838,F-22
2.010000,120.000105,30.003200,10000.000000,349.439176,0.000000,19.805615,1.202000,0.000000,63.434949,3.243956,F-22
2.020000,120.000107,30.003232,10000.000000,349.428018,0.000000,20.001497,1.204000,0.000000,63.434949,3.276074,F-22
2.030000,120.000109,30.003263,10000.000000,349.416751,0.000000,20.197373,1.206000,0.000000,63.434949,3.308193,F-22
2.040000,120.000111,30.003294,10000.000000,349.405374,0.000000,20.393243,1.208000,0.000000,63.434949,3.340311,F-22
2.050000,120.000113,30.003326,10000.000000,349.393888,0.000000,20.589107,1.210000,0.000000,63.434949,3.372430,F-22
2.060000,120.000115,30.003357,10000.000000,349.382291,0.000000,20.784964,1.212000,0.000000,63.434949,3.404548,F-22
2.070000,120.000117,30.003388,10000.000000,349.370585,0.000000,20.980814,1.214000,0.000000,63.434949,3.436666,F-22
2.080000,120.000120,30.003420,10000.000000,349.358769,0.000000,21.176658,1.216000,0.000000,63.434949,3.468785,F-22
2.090000,120.000122,30.003451,10000.000000,349.346843,0.000000,21.372495,1.218000,0.000000,63.434949,3.500903,F-22
2.100000,120.000124,30.003482,10000.000000,349.334807,0.000000,21.568326,1.220000,0.000000,63.434949,3.533021,F-22
2.110000,120.000126,30.003514,10000.000000,349.322661,0.000000,21.764149,1.222000,0.000000,63.434949,3.565140,F-22
2.120000,120.000129,30.003545,10000.000000,349.310406,0.000000,21.959966,1.224000,0.000000,63.434949,3.597258,F-22
2.130000,120.000131,30.003576,10000.000000,349.298041,0.000000,22.155776,1.226000,0.000000,63.434949,3.629377,F-22
2.140000,120.000133,30.003608,10000.000000,349.285566,0.000000,22.351579,1.228000,0.000000,63.434949,3.661495,F-22
2.150000,120.000135,30.003639,10000.000000,349.272982,0.000000,22.547375,1.230000,0.000000,63.434949,3.693613,F-22
2.160000,120.000138,30.003670,10000.000000,349.260288,0.000000,22.743164,1.232000,0.000000,63.434949,3.725732,F-22
2.170000,120.000140,30.003702,10000.000000,349.247484,0.000000,22.938946,1.234000,0.000000,63.434949,3.757850,F-22
2.180000,120.000143,30.003733,10000.000000,349.234570,0.000000,23.134720,1.236000,0.000000,63.434949,3.789968,F-22
2.190000,120.000145,30.003764,10000.000000,349.221546,0.000000,23.330488,1.238000,0.000000,63.434949,3.822087,F-22
2.200000,120.000147,30.003796,10000.000000,349.208413,0.000000,23.526248,1.240000,0.000000,63.434949,3.854205,F-22
2.210000,120.000150,30.003827,10000.000000,349.195170,0.000000,23.722000,1.242000,0.000000,63.434949,3.886324,F-22
2.220000,120.000152,30.003858,10000.000000,349.181817,0.000000,23.917745,1.244000,0.000000,63.434949,3.918442,F-22
2.230000,120.000155,30.003889,10000.000000,349.168355,0.000000,24.113483,1.246000,0.000000,63.434949,3.950560,F-22
2.240000,120.000157,30.003921,10000.000000,349.154783,0.000000,24.309213,1.248000,0.000000,63.434949,3.982679,F-22
2.250000,120.000160,30.003952,10000.000000,349.141101,0.000000,24.504935,1.250000,0.000000,63.434949,4.014797,F-22
2.260000,120.000163,30.003983,10000.000000,349.127309,0.000000,24.700650,1.252000,0.000000,63.434949,4.046915,F-22
2.270000,120.000165,30.004015,10000.000000,349.113408,0.000000,24.896357,1.254000,0.000000,63.434949,4.079034,F-22
2.280000,120.000168,30.004046,10000.000000,349.099397,0.000000,25.092056,1.256000,0.000000,63.434949,4.111152,F-22
2.290000,120.000170,30.004077,10000.000000,349.085276,0.000000,25.287747,1.258000,0.000000,63.434949,4.143271,F-22
2.300000,120.000173,30.004109,10000.000000,349.071045,0.000000,25.483430,1.260000,0.000000,63.434949,4.175389,F-22
2.310000,120.000176,30.004140,10000.000000,349.056705,0.000000,25.679106,1.262000,0.000000,63.434949,4.207507,F-22
2.320000,120.000178,30.004171,10000.000000,349.042256,0.000000,25.874773,1.264000,0.000000,63.434949,4.239626,F-22
2.330000,120.000181,30.004203,10000.000000,349.027696,0.000000,26.070432,1.266000,0.000000,63.434949,4.271744,F-22
2.340000,120.000184,30.004234,10000.000000,349.013027,0.000000,26.266083,1.268000,0.000000,63.434949,4.303863,F-22
2.350000,120.000186,30.004265,10000.000000,348.998248,0.000000,26.461725,1.270000,0.000000,63.434949,4.335981,F-22
2.360000,120.000189,30.004296,10000.000000,348.983359,0.000000,26.657360,1.272000,0.000000,63.434949,4.368099,F-22
2.370000,120.000192,30.004328,10000.000000,348.968361,0.000000,26.852985,1.274000,0.000000,63.434949,4.400218,F-22
2.380000,120.000195,30.004359,10000.000000,348.953253,0.000000,27.048603,1.276000,0.000000,63.434949,4.432336,F-22
2.390000,120.000198,30.004390,10000.000000,348.938036,0.000000,27.244212,1.278000,0.000000,63.434949,4.464454,F-22
2.400000,120.000200,30.004422,10000.000000,348.922709,0.000000,27.439812,1.280000,0.000000,63.434949,4.496573,F-22
2.410000,120.000203,30.004453,10000.000000,348.907272,0.000000,27.635404,1.282000,0.000000,63.434949,4.528691,F-22
2.420000,120.000206,30.004484,10000.000000,348.891726,0.000000,27.830987,1.284000,0.000000,63.434949,4.560810,F-22
2.430000,120.000209,30.004516,10000.000000,348.876069,0.000000,28.026561,1.286000,0.000000,63.434949,4.592928,F-22
2.440000,120.000212,30.004547,10000.000000,348.860304,0.000000,28.222127,1.288000,0.000000,63.434949,4.625046,F-22
2.450000,120.000215,30.004578,10000.000000,348.844428,0.000000,28.417684,1.290000,0.000000,63.434949,4.657165,F-22
2.460000,120.000218,30.004609,10000.000000,348.828443,0.000000,28.613231,1.292000,0.000000,63.434949,4.689283,F-22
2.470000,120.000221,30.004641,10000.000000,348.812349,0.000000,28.808770,1.294000,0.000000,63.434949,4.721401,F-22
2.480000,120.000224,30.004672,10000.000000,348.796145,0.000000,29.004300,1.296000,0.000000,63.434949,4.753520,F-22
2.490000,120.000227,30.004703,10000.000000,348.779831,0.000000,29.199821,1.298000,0.000000,63.434949,4.785638,F-22
2.500000,120.000230,30.004735,10000.000000,348.763408,0.000000,29.395332,1.300000,0.000000,63.434949,4.817757,F-22
2.510000,120.000233,30.004766,10000.000000,348.746875,0.000000,29.590834,1.302000,0.000000,63.434949,4.849875,F-22
2.520000,120.000236,30.004797,10000.000000,348.730232,0.000000,29.786327,1.304000,0.000000,63.434949,4.881993,F-22
2.530000,120.000239,30.004828,10000.000000,348.713480,0.000000,29.981810,1.306000,0.000000,63.434949,4.914112,F-22
2.540000,120.000242,30.004860,10000.000000,348.696618,0.000000,30.177285,1.308000,0.000000,63.434949,4.946230,F-22
2.550000,120.000246,30.004891,10000.000000,348.679647,0.000000,30.372749,1.310000,0.000000,63.434949,4.978348,F-22
2.560000,120.000249,30.004922,10000.000000,348.662566,0.000000,30.568204,1.312000,0.000000,63.434949,5.010467,F-22
2.570000,120.000252,30.004953,10000.000000,348.645375,0.000000,30.763650,1.314000,0.000000,63.434949,5.042585,F-22
2.580000,120.000255,30.004985,10000.000000,348.628075,0.000000,30.959085,1.316000,0.000000,63.434949,5.074704,F-22
2.590000,120.000258,30.005016,10000.000000,348.610666,0.000000,31.154512,1.318000,0.000000,63.434949,5.106822,F-22
2.600000,120.000262,30.005047,10000.000000,348.593147,0.000000,31.349928,1.320000,0.000000,63.434949,5.138940,F-22
2.610000,120.000265,30.005079,10000.000000,348.575518,0.000000,31.545334,1.322000,0.000000,63.434949,5.171059,F-22
2.620000,120.000268,30.005110,10000.000000,348.557780,0.000000,31.740731,1.324000,0.000000,63.434949,5.203177,F-22
2.630000,120.000271,30.005141,10000.000000,348.539932,0.000000,31.936117,1.326000,0.000000,63.434949,5.235295,F-22
2.640000,120.000275,30.005172,10000.000000,348.521975,0.000000,32.131494,1.328000,0.000000,63.434949,5.267414,F-22
2.650000,120.000278,30.005204,10000.000000,348.503908,0.000000,32.326860,1.330000,0.000000,63.434949,5.299532,F-22
2.660000,120.000281,30.005235,10000.000000,348.485732,0.000000,32.522216,1.332000,0.000000,63.434949,5.331651,F-22
2.670000,120.000285,30.005266,10000.000000,348.467446,0.000000,32.717562,1.334000,0.000000,63.434949,5.363769,F-22
2.680000,120.000288,30.005297,10000.000000,348.449051,0.000000,32.912898,1.336000,0.000000,63.434949,5.395887,F-22
2.690000,120.000292,30.005329,10000.000000,348.430546,0.000000,33.108224,1.338000,0.000000,63.434949,5.428006,F-22
2.700000,120.000295,30.005360,10000.000000,348.411932,0.000000,33.303539,1.340000,0.000000,63.434949,5.460124,F-22
2.710000,120.000299,30.005391,10000.000000,348.393208,0.000000,33.498843,1.342000,0.000000,63.434949,5.492242,F-22
2.720000,120.000302,30.005422,10000.000000,348.374375,0.000000,33.694137,1.344000,0.000000,63.434949,5.524361,F-22
2.730000,120.000306,30.005454,10000.000000,348.355432,0.000000,33.889421,1.346000,0.000000,63.434949,5.556479,F-22
2.740000,120.000309,30.005485,10000.000000,348.336380,0.000000,34.084693,1.348000,0.000000,63.434949,5.588598,F-22
2.750000,120.000313,30.005516,10000.000000,348.317218,0.000000,34.279955,1.350000,0.000000,63.434949,5.620716,F-22
2.760000,120.000316,30.005547,10000.000000,348.297947,0.000000,34.475207,1.352000,0.000000,63.434949,5.652834,F-22
2.770000,120.000320,30.005579,10000.000000,348.278567,0.000000,34.670447,1.354000,0.000000,63.434949,5.684953,F-22
2.780000,120.000323,30.005610,10000.000000,348.259077,0.000000,34.865677,1.356000,0.000000,63.434949,5.717071,F-22
2.790000,120.000327,30.005641,10000.000000,348.239477,0.000000,35.060895,1.358000,0.000000,63.434949,5.749189,F-22
2.800000,120.000331,30.005672,10000.000000,348.219769,0.000000,35.256103,1.360000,0.000000,63.434949,5.781308,F-22
2.810000,120.000334,30.005703,10000.000000,348.199950,0.000000,35.451299,1.362000,0.000000,63.434949,5.813426,F-22
2.820000,120.000338,30.005735,10000.000000,348.180023,0.000000,35.646485,1.364000,0.000000,63.434949,5.845545,F-22
2.830000,120.000342,30.005766,10000.000000,348.159985,0.000000,35.841659,1.366000,0.000000,63.434949,5.877663,F-22
2.840000,120.000346,30.005797,10000.000000,348.139839,0.000000,36.036822,1.368000,0.000000,63.434949,5.909781,F-22
2.850000,120.000349,30.005828,10000.000000,348.119583,0.000000,36.231973,1.370000,0.000000,63.434949,5.941900,F-22
2.860000,120.000353,30.005860,10000.000000,348.099218,0.000000,36.427114,1.372000,0.000000,63.434949,5.974018,F-22
2.870000,120.000357,30.005891,10000.000000,348.078743,0.000000,36.622242,1.374000,0.000000,63.434949,6.006136,F-22
2.880000,120.000361,30.005922,10000.000000,348.058159,0.000000,36.817360,1.376000,0.000000,63.434949,6.038255,F-22
2.890000,120.000365,30.005953,10000.000000,348.037466,0.000000,37.012465,1.378000,0.000000,63.434949,6.070373,F-22
2.900000,120.000368,30.005984,10000.000000,348.016663,0.000000,37.207559,1.380000,0.000000,63.434949,6.102492,F-22
2.910000,120.000372,30.006016,10000.000000,347.995751,0.000000,37.402642,1.382000,0.000000,63.434949,6.134610,F-22
2.920000,120.000376,30.006047,10000.000000,347.974729,0.000000,37.597712,1.384000,0.000000,63.434949,6.166728,F-22
2.930000,120.000380,30.006078,10000.000000,347.953598,0.000000,37.792771,1.386000,0.000000,63.434949,6.198847,F-22
2.940000,120.000384,30.006109,10000.000000,347.932358,0.000000,37.987818,1.388000,0.000000,63.434949,6.230965,F-22
2.950000,120.000388,30.006141,10000.000000,347.911008,0.000000,38.182853,1.390000,0.000000,63.434949,6.263084,F-22
2.960000,120.000392,30.006172,10000.000000,347.889550,0.000000,38.377876,1.392000,0.000000,63.434949,6.295202,F-22
2.970000,120.000396,30.006203,10000.000000,347.867981,0.000000,38.572887,1.394000,0.000000,63.434949,6.327320,F-22
2.980000,120.000400,30.006234,10000.000000,347.846304,0.000000,38.767885,1.396000,0.000000,63.434949,6.359439,F-22
2.990000,120.000404,30.006265,10000.000000,347.824517,0.000000,38.962872,1.398000,0.000000,63.434949,6.391557,F-22
3.000000,120.000408,30.006297,10000.000000,347.802621,0.000000,39.157846,1.400000,0.000000,63.434949,6.423675,F-22
3.010000,120.000412,30.006328,10000.000000,347.780615,0.000000,39.352808,1.402000,0.000000,63.434949,6.455794,F-22
3.020000,120.000416,30.006359,10000.000000,347.758501,0.000000,39.547758,1.404000,0.000000,63.434949,6.487912,F-22
3.030000,120.000420,30.006390,10000.000000,347.736277,0.000000,39.742695,1.406000,0.000000,63.434949,6.520031,F-22
3.040000,120.000424,30.006421,10000.000000,347.713943,0.000000,39.937620,1.408000,0.000000,63.434949,6.552149,F-22
3.050000,120.000429,30.006452,10000.000000,347.691501,0.000000,40.132532,1.410000,0.000000,63.434949,6.584267,F-22
3.060000,120.000433,30.006484,10000.000000,347.668949,0.000000,40.327432,1.412000,0.000000,63.434949,6.616386,F-22
3.070000,120.000437,30.006515,10000.000000,347.646288,0.000000,40.522319,1.414000,0.000000,63.434949,6.648504,F-22
3.080000,120.000441,30.006546,10000.000000,347.623518,0.000000,40.717193,1.416000,0.000000,63.434949,6.680622,F-22
3.090000,120.000445,30.006577,10000.000000,347.600638,0.000000,40.912054,1.418000,0.000000,63.434949,6.712741,F-22
3.100000,120.000450,30.006608,10000.000000,347.577650,0.000000,41.106903,1.420000,0.000000,63.434949,6.744859,F-22
3.110000,120.000454,30.006640,10000.000000,347.554552,0.000000,41.301739,1.422000,0.000000,63.434949,6.776978,F-22
3.120000,120.000458,30.006671,10000.000000,347.531344,0.000000,41.496561,1.424000,0.000000,63.434949,6.809096,F-22
3.130000,120.000463,30.006702,10000.000000,347.508028,0.000000,41.691371,1.426000,0.000000,63.434949,6.841214,F-22
3.140000,120.000467,30.006733,10000.000000,347.484603,0.000000,41.886167,1.428000,0.000000,63.434949,6.873333,F-22
3.150000,120.000471,30.006764,10000.000000,347.461068,0.000000,42.080951,1.430000,0.000000,63.434949,6.905451,F-22
3.160000,120.000476,30.006795,10000.000000,347.437424,0.000000,42.275721,1.432000,0.000000,63.434949,6.937569,F-22
3.170000,120.000480,30.006827,10000.000000,347.413671,0.000000,42.470478,1.434000,0.000000,63.434949,6.969688,F-22
3.180000,120.000484,30.006858,10000.000000,347.389808,0.000000,42.665221,1.436000,0.000000,63.434949,7.001806,F-22
3.190000,120.000489,30.006889,10000.000000,347.365837,0.000000,42.859951,1.438000,0.000000,63.434949,7.033925,F-22
3.200000,120.000493,30.006920,10000.000000,347.341756,0.000000,43.054668,1.440000,0.000000,63.434949,7.066043,F-22
3.210000,120.000498,30.006951,10000.000000,347.317566,0.000000,43.249371,1.442000,0.000000,63.434949,7.098161,F-22
3.220000,120.000502,30.006982,10000.000000,347.293267,0.000000,43.444061,1.444000,0.000000,63.434949,7.130280,F-22
3.230000,120.000507,30.007013,10000.000000,347.268859,0.000000,43.638736,1.446000,0.000000,63.434949,7.162398,F-22
3.240000,120.000511,30.007045,10000.000000,347.244342,0.000000,43.833399,1.448000,0.000000,63.434949,7.194516,F-22
3.250000,120.000516,30.007076,10000.000000,347.219716,0.000000,44.028047,1.450000,0.000000,63.434949,7.226635,F-22
3.260000,120.000521,30.007107,10000.000000,347.194980,0.000000,44.222681,1.452000,0.000000,63.434949,7.258753,F-22
3.270000,120.000525,30.007138,10000.000000,347.170136,0.000000,44.417302,1.454000,0.000000,63.434949,7.290872,F-22
3.280000,120.000530,30.007169,10000.000000,347.145182,0.000000,44.611909,1.456000,0.000000,63.434949,7.322990,F-22
3.290000,120.000534,30.007200,10000.000000,347.120120,0.000000,44.806501,1.458000,0.000000,63.434949,7.355108,F-22
3.300000,120.000539,30.007231,10000.000000,347.094948,0.000000,45.001080,1.460000,0.000000,63.434949,7.387227,F-22
3.310000,120.000544,30.007263,10000.000000,347.069667,0.000000,45.195644,1.462000,0.000000,63.434949,7.419345,F-22
3.320000,120.000548,30.007294,10000.000000,347.044277,0.000000,45.390195,1.464000,0.000000,63.434949,7.451463,F-22
3.330000,120.000553,30.007325,10000.000000,347.018778,0.000000,45.584731,1.466000,0.000000,63.434949,7.483582,F-22
3.340000,120.000558,30.007356,10000.000000,346.993170,0.000000,45.779252,1.468000,0.000000,63.434949,7.515700,F-22
3.350000,120.000563,30.007387,10000.000000,346.967453,0.000000,45.973759,1.470000,0.000000,63.434949,7.547819,F-22
3.360000,120.000567,30.007418,10000.000000,346.941627,0.000000,46.168252,1.472000,0.000000,63.434949,7.579937,F-22
3.370000,120.000572,30.007449,10000.000000,346.915692,0.000000,46.362731,1.474000,0.000000,63.434949,7.612055,F-22
3.380000,120.000577,30.007480,10000.000000,346.889648,0.000000,46.557194,1.476000,0.000000,63.434949,7.644174,F-22
3.390000,120.000582,30.007511,10000.000000,346.863495,0.000000,46.751643,1.478000,0.000000,63.434949,7.676292,F-22
3.400000,120.000587,30.007543,10000.000000,346.837232,0.000000,46.946078,1.480000,0.000000,63.434949,7.708410,F-22
3.410000,120.000592,30.007574,10000.000000,346.810861,0.000000,47.140497,1.482000,0.000000,63.434949,7.740529,F-22
3.420000,120.000597,30.007605,10000.000000,346.784381,0.000000,47.334902,1.484000,0.000000,63.434949,7.772647,F-22
3.430000,120.000601,30.007636,10000.000000,346.757792,0.000000,47.529292,1.486000,0.000000,63.434949,7.804766,F-22
3.440000,120.000606,30.007667,10000.000000,346.731094,0.000000,47.723667,1.488000,0.000000,63.434949,7.836884,F-22
3.450000,120.000611,30.007698,10000.000000,346.704287,0.000000,47.918027,1.490000,0.000000,63.434949,7.869002,F-22
3.460000,120.000616,30.007729,10000.000000,346.677371,0.000000,48.112372,1.492000,0.000000,63.434949,7.901121,F-22
3.470000,120.000621,30.007760,10000.000000,346.650346,0.000000,48.306702,1.494000,0.000000,63.434949,7.933239,F-22
3.480000,120.000626,30.007791,10000.000000,346.623212,0.000000,48.501017,1.496000,0.000000,63.434949,7.965357,F-22
3.490000,120.000631,30.007822,10000.000000,346.595970,0.000000,48.695316,1.498000,0.000000,63.434949,7.997476,F-22
3.500000,120.000637,30.007854,10000.000000,346.568618,0.000000,48.889600,1.500000,0.000000,63.434949,8.029594,F-22
3.510000,120.000642,30.007885,10000.000000,346.541157,0.000000,49.083869,1.502000,0.000000,63.434949,8.061713,F-22
3.520000,120.000647,30.007916,10000.000000,346.513588,0.000000,49.278123,1.504000,0.000000,63.434949,8.093831,F-22
3.530000,120.000652,30.007947,10000.000000,346.485910,0.000000,49.472360,1.506000,0.000000,63.434949,8.125949,F-22
3.540000,120.000657,30.007978,10000.000000,346.458122,0.000000,49.666583,1.508000,0.000000,63.434949,8.158068,F-22
3.550000,120.000662,30.008009,10000.000000,346.430226,0.000000,49.860789,1.510000,0.000000,63.434949,8.190186,F-22
3.560000,120.000667,30.008040,10000.000000,346.402221,0.000000,50.054980,1.512000,0.000000,63.434949,8.222305,F-22
3.570000,120.000673,30.008071,10000.000000,346.374107,0.000000,50.249156,1.514000,0.000000,63.434949,8.254423,F-22
3.580000,120.000678,30.008102,10000.000000,346.345885,0.000000,50.443315,1.516000,0.000000,63.434949,8.286541,F-22
3.590000,120.000683,30.008133,10000.000000,346.317553,0.000000,50.637459,1.518000,0.000000,63.434949,8.318660,F-22
3.600000,120.000688,30.008164,10000.000000,346.289113,0.000000,50.831587,1.520000,0.000000,63.434949,8.350778,F-22
3.610000,120.000694,30.008195,10000.000000,346.260564,0.000000,51.025699,1.522000,0.000000,63.434949,8.382896,F-22
3.620000,120.000699,30.008226,10000.000000,346.231906,0.000000,51.219794,1.524000,0.000000,63.434949,8.415015,F-22
3.630000,120.000704,30.008257,10000.000000,346.203139,0.000000,51.413874,1.526000,0.000000,63.434949,8.447133,F-22
3.640000,120.000710,30.008288,10000.000000,346.174264,0.000000,51.607937,1.528000,0.000000,63.434949,8.479252,F-22
3.650000,120.000715,30.008319,10000.000000,346.145279,0.000000,51.801985,1.530000,0.000000,63.434949,8.511370,F-22
3.660000,120.000720,30.008351,10000.000000,346.116186,0.000000,51.996016,1.532000,0.000000,63.434949,8.543488,F-22
3.670000,120.000726,30.008382,10000.000000,346.086984,0.000000,52.190030,1.534000,0.000000,63.434949,8.575607,F-22
3.680000,120.000731,30.008413,10000.000000,346.057674,0.000000,52.384029,1.536000,0.000000,63.434949,8.607725,F-22
3.690000,120.000737,30.008444,10000.000000,346.028254,0.000000,52.578010,1.538000,0.000000,63.434949,8.639843,F-22
3.700000,120.000742,30.008475,10000.000000,345.998726,0.000000,52.771976,1.540000,0.000000,63.434949,8.671962,F-22
3.710000,120.000748,30.008506,10000.000000,345.969089,0.000000,52.965924,1.542000,0.000000,63.434949,8.704080,F-22
3.720000,120.000753,30.008537,10000.000000,345.939344,0.000000,53.159857,1.544000,0.000000,63.434949,8.736199,F-22
3.730000,120.000759,30.008568,10000.000000,345.909490,0.000000,53.353772,1.546000,0.000000,63.434949,8.768317,F-22
3.740000,120.000764,30.008599,10000.000000,345.879527,0.000000,53.547670,1.548000,0.000000,63.434949,8.800435,F-22
3.750000,120.000770,30.008630,10000.000000,345.849455,0.000000,53.741552,1.550000,0.000000,63.434949,8.832554,F-22
3.760000,120.000775,30.008661,10000.000000,345.819275,0.000000,53.935417,1.552000,0.000000,63.434949,8.864672,F-22
3.770000,120.000781,30.008692,10000.000000,345.788986,0.000000,54.129265,1.554000,0.000000,63.434949,8.896790,F-22
3.780000,120.000786,30.008723,10000.000000,345.758588,0.000000,54.323096,1.556000,0.000000,63.434949,8.928909,F-22
3.790000,120.000792,30.008754,10000.000000,345.728082,0.000000,54.516910,1.558000,0.000000,63.434949,8.961027,F-22
3.800000,120.000798,30.008785,10000.000000,345.697467,0.000000,54.710706,1.560000,0.000000,63.434949,8.993146,F-22
3.810000,120.000803,30.008816,10000.000000,345.666743,0.000000,54.904486,1.562000,0.000000,63.434949,9.025264,F-22
3.820000,120.000809,30.008847,10000.000000,345.635911,0.000000,55.098248,1.564000,0.000000,63.434949,9.057382,F-22
3.830000,120.000815,30.008878,10000.000000,345.604970,0.000000,55.291993,1.566000,0.000000,63.434949,9.089501,F-22
3.840000,120.000821,30.008909,10000.000000,345.573921,0.000000,55.485721,1.568000,0.000000,63.434949,9.121619,F-22
3.850000,120.000826,30.008940,10000.000000,345.542763,0.000000,55.679431,1.570000,0.000000,63.434949,9.153737,F-22
3.860000,120.000832,30.008971,10000.000000,345.511496,0.000000,55.873124,1.572000,0.000000,63.434949,9.185856,F-22
3.870000,120.000838,30.009002,10000.000000,345.480121,0.000000,56.066799,1.574000,0.000000,63.434949,9.217974,F-22
3.880000,120.000844,30.009033,10000.000000,345.448637,0.000000,56.260456,1.576000,0.000000,63.434949,9.250093,F-22
3.890000,120.000850,30.009064,10000.000000,345.417045,0.000000,56.454096,1.578000,0.000000,63.434949,9.282211,F-22
3.900000,120.000856,30.009095,10000.000000,345.385344,0.000000,56.647718,1.580000,0.000000,63.434949,9.314329,F-22
3.910000,120.000861,30.009126,10000.000000,345.353535,0.000000,56.841322,1.582000,0.000000,63.434949,9.346448,F-22
3.920000,120.000867,30.009157,10000.000000,345.321617,0.000000,57.034909,1.584000,0.000000,63.434949,9.378566,F-22
3.930000,120.000873,30.009188,10000.000000,345.289591,0.000000,57.228477,1.586000,0.000000,63.434949,9.410684,F-22
3.940000,120.000879,30.009219,10000.000000,345.257456,0.000000,57.422027,1.588000,0.000000,63.434949,9.442803,F-22
3.950000,120.000885,30.009250,10000.000000,345.225212,0.000000,57.615560,1.590000,0.000000,63.434949,9.474921,F-22
3.960000,120.000891,30.009281,10000.000000,345.192860,0.000000,57.809074,1.592000,0.000000,63.434949,9.507040,F-22
3.970000,120.000897,30.009312,10000.000000,345.160400,0.000000,58.002570,1.594000,0.000000,63.434949,9.539158,F-22
3.980000,120.000903,30.009342,10000.000000,345.127831,0.000000,58.196048,1.596000,0.000000,63.434949,9.571276,F-22
3.990000,120.000909,30.009373,10000.000000,345.095154,0.000000,58.389508,1.598000,0.000000,63.434949,9.603395,F-22
4.000000,120.000915,30.009404,10000.000000,345.062368,0.000000,58.582949,1.600000,0.000000,63.434949,9.635513,F-22
4.010000,120.000921,30.009435,10000.000000,345.029474,0.000000,58.776372,1.602000,0.000000,63.434949,9.667631,F-22
4.020000,120.000928,30.009466,10000.000000,344.996472,0.000000,58.969777,1.604000,0.000000,63.434949,9.699750,F-22
4.030000,120.000934,30.009497,10000.000000,344.963361,0.000000,59.163162,1.606000,0.000000,63.434949,9.731868,F-22
4.040000,120.000940,30.009528,10000.000000,344.930141,0.000000,59.356530,1.608000,0.000000,63.434949,9.763987,F-22
4.050000,120.000946,30.009559,10000.000000,344.896814,0.000000,59.549878,1.610000,0.000000,63.434949,9.796105,F-22
4.060000,120.000952,30.009590,10000.000000,344.863377,0.000000,59.743208,1.612000,0.000000,63.434949,9.828223,F-22
4.070000,120.000958,30.009621,10000.000000,344.829833,0.000000,59.936520,1.614000,0.000000,63.434949,9.860342,F-22
4.080000,120.000965,30.009652,10000.000000,344.796180,0.000000,60.129812,1.616000,0.000000,63.434949,9.892460,F-22
4.090000,120.000971,30.009683,10000.000000,344.762419,0.000000,60.323085,1.618000,0.000000,63.434949,9.924578,F-22
4.100000,120.000977,30.009714,10000.000000,344.728549,0.000000,60.516340,1.620000,0.000000,63.434949,9.956697,F-22
4.110000,120.000983,30.009745,10000.000000,344.694571,0.000000,60.709575,1.622000,0.000000,63.434949,9.988815,F-22
4.120000,120.000990,30.009776,10000.000000,344.660485,0.000000,60.902792,1.624000,0.000000,63.434949,10.020934,F-22
4.130000,120.000996,30.009806,10000.000000,344.626291,0.000000,61.095989,1.626000,0.000000,63.434949,10.053052,F-22
4.140000,120.001002,30.009837,10000.000000,344.591988,0.000000,61.289167,1.628000,0.000000,63.434949,10.085170,F-22
4.150000,120.001009,30.009868,10000.000000,344.557577,0.000000,61.482326,1.630000,0.000000,63.434949,10.117289,F-22
4.160000,120.001015,30.009899,10000.000000,344.523057,0.000000,61.675465,1.632000,0.000000,63.434949,10.149407,F-22
4.170000,120.001022,30.009930,10000.000000,344.488430,0.000000,61.868585,1.634000,0.000000,63.434949,10.181526,F-22
4.180000,120.001028,30.009961,10000.000000,344.453694,0.000000,62.061686,1.636000,0.000000,63.434949,10.213644,F-22
4.190000,120.001034,30.009992,10000.000000,344.418850,0.000000,62.254767,1.638000,0.000000,63.434949,10.245762,F-22
4.200000,120.001041,30.010023,10000.000000,344.383897,0.000000,62.447829,1.640000,0.000000,63.434949,10.277881,F-22
4.210000,120.001047,30.010054,10000.000000,344.348837,0.000000,62.640870,1.642000,0.000000,63.434949,10.309999,F-22
4.220000,120.001054,30.010085,10000.000000,344.313668,0.000000,62.833893,1.644000,0.000000,63.434949,10.342117,F-22
4.230000,120.001060,30.010115,10000.000000,344.278391,0.000000,63.026895,1.646000,0.000000,63.434949,10.374236,F-22
4.240000,120.001067,30.010146,10000.000000,344.243006,0.000000,63.219878,1.648000,0.000000,63.434949,10.406354,F-22
4.250000,120.001074,30.010177,10000.000000,344.207512,0.000000,63.412841,1.650000,0.000000,63.434949,10.438473,F-22
4.260000,120.001080,30.010208,10000.000000,344.171911,0.000000,63.605784,1.652000,0.000000,63.434949,10.470591,F-22
4.270000,120.001087,30.010239,10000.000000,344.136201,0.000000,63.798707,1.654000,0.000000,63.434949,10.502709,F-22
4.280000,120.001093,30.010270,10000.000000,344.100383,0.000000,63.991610,1.656000,0.000000,63.434949,10.534828,F-22
4.290000,120.001100,30.010301,10000.000000,344.064458,0.000000,64.184492,1.658000,0.000000,63.434949,10.566946,F-22
4.300000,120.001107,30.010331,10000.000000,344.028423,0.000000,64.377355,1.660000,0.000000,63.434949,10.599064,F-22
4.310000,120.001113,30.010362,10000.000000,343.992281,0.000000,64.570197,1.662000,0.000000,63.434949,10.631183,F-22
4.320000,120.001120,30.010393,10000.000000,343.956031,0.000000,64.763019,1.664000,0.000000,63.434949,10.663301,F-22
4.330000,120.001127,30.010424,10000.000000,343.919673,0.000000,64.955821,1.666000,0.000000,63.434949,10.695420,F-22
4.340000,120.001134,30.010455,10000.000000,343.883206,0.000000,65.148603,1.668000,0.000000,63.434949,10.727538,F-22
4.350000,120.001140,30.010486,10000.000000,343.846632,0.000000,65.341363,1.670000,0.000000,63.434949,10.759656,F-22
4.360000,120.001147,30.010517,10000.000000,343.809949,0.000000,65.534104,1.672000,0.000000,63.434949,10.791775,F-22
4.370000,120.001154,30.010547,10000.000000,343.773159,0.000000,65.726823,1.674000,0.000000,63.434949,10.823893,F-22
4.380000,120.001161,30.010578,10000.000000,343.736260,0.000000,65.919522,1.676000,0.000000,63.434949,10.856011,F-22
4.390000,120.001168,30.010609,10000.000000,343.699254,0.000000,66.112201,1.678000,0.000000,63.434949,10.888130,F-22
4.400000,120.001174,30.010640,10000.000000,343.662139,0.000000,66.304858,1.680000,0.000000,63.434949,10.920248,F-22
4.410000,120.001181,30.010671,10000.000000,343.624916,0.000000,66.497495,1.682000,0.000000,63.434949,10.952367,F-22
4.420000,120.001188,30.010701,10000.000000,343.587586,0.000000,66.690111,1.684000,0.000000,63.434949,10.984485,F-22
4.430000,120.001195,30.010732,10000.000000,343.550147,0.000000,66.882706,1.686000,0.000000,63.434949,11.016603,F-22
4.440000,120.001202,30.010763,10000.000000,343.512601,0.000000,67.075280,1.688000,0.000000,63.434949,11.048722,F-22
4.450000,120.001209,30.010794,10000.000000,343.474946,0.000000,67.267833,1.690000,0.000000,63.434949,11.080840,F-22
4.460000,120.001216,30.010825,10000.000000,343.437184,0.000000,67.460364,1.692000,0.000000,63.434949,11.112958,F-22
4.470000,120.001223,30.010855,10000.000000,343.399314,0.000000,67.652875,1.694000,0.000000,63.434949,11.145077,F-22
4.480000,120.001230,30.010886,10000.000000,343.361335,0.000000,67.845364,1.696000,0.000000,63.434949,11.177195,F-22
4.490000,120.001237,30.010917,10000.000000,343.323249,0.000000,68.037832,1.698000,0.000000,63.434949,11.209314,F-22
4.500000,120.001244,30.010948,10000.000000,343.285055,0.000000,68.230278,1.700000,0.000000,63.434949,11.241432,F-22
4.510000,120.001251,30.010979,10000.000000,343.246753,0.000000,68.422703,1.702000,0.000000,63.434949,11.273550,F-22
4.520000,120.001258,30.011009,10000.000000,343.208344,0.000000,68.615107,1.704000,0.000000,63.434949,11.305669,F-22
4.530000,120.001266,30.011040,10000.000000,343.169826,0.000000,68.807489,1.706000,0.000000,63.434949,11.337787,F-22
4.540000,120.001273,30.011071,10000.000000,343.131201,0.000000,68.999849,1.708000,0.000000,63.434949,11.369905,F-22
4.550000,120.001280,30.011102,10000.000000,343.092467,0.000000,69.192188,1.710000,0.000000,63.434949,11.402024,F-22
4.560000,120.001287,30.011133,10000.000000,343.053626,0.000000,69.384505,1.712000,0.000000,63.434949,11.434142,F-22
4.570000,120.001294,30.011163,10000.000000,343.014677,0.000000,69.576800,1.714000,0.000000,63.434949,11.466261,F-22
4.580000,120.001301,30.011194,10000.000000,342.975621,0.000000,69.769073,1.716000,0.000000,63.434949,11.498379,F-22
4.590000,120.001309,30.011225,10000.000000,342.936456,0.000000,69.961325,1.718000,0.000000,63.434949,11.530497,F-22
4.600000,120.001316,30.011256,10000.000000,342.897184,0.000000,70.153554,1.720000,0.000000,63.434949,11.562616,F-22
4.610000,120.001323,30.011286,10000.000000,342.857804,0.000000,70.345761,1.722000,0.000000,63.434949,11.594734,F-22
4.620000,120.001331,30.011317,10000.000000,342.818316,0.000000,70.537947,1.724000,0.000000,63.434949,11.626852,F-22
4.630000,120.001338,30.011348,10000.000000,342.778721,0.000000,70.730110,1.726000,0.000000,63.434949,11.658971,F-22
4.640000,120.001345,30.011379,10000.000000,342.739018,0.000000,70.922251,1.728000,0.000000,63.434949,11.691089,F-22
4.650000,120.001353,30.011409,10000.000000,342.699207,0.000000,71.114369,1.730000,0.000000,63.434949,11.723208,F-22
4.660000,120.001360,30.011440,10000.000000,342.659289,0.000000,71.306465,1.732000,0.000000,63.434949,11.755326,F-22
4.670000,120.001367,30.011471,10000.000000,342.619262,0.000000,71.498539,1.734000,0.000000,63.434949,11.787444,F-22
4.680000,120.001375,30.011501,10000.000000,342.579128,0.000000,71.690590,1.736000,0.000000,63.434949,11.819563,F-22
4.690000,120.001382,30.011532,10000.000000,342.538887,0.000000,71.882619,1.738000,0.000000,63.434949,11.851681,F-22
4.700000,120.001390,30.011563,10000.000000,342.498538,0.000000,72.074625,1.740000,0.000000,63.434949,11.883799,F-22
4.710000,120.001397,30.011594,10000.000000,342.458081,0.000000,72.266609,1.742000,0.000000,63.434949,11.915918,F-22
4.720000,120.001405,30.011624,10000.000000,342.417517,0.000000,72.458570,1.744000,0.000000,63.434949,11.948036,F-22
4.730000,120.001412,30.011655,10000.000000,342.376845,0.000000,72.650508,1.746000,0.000000,63.434949,11.980155,F-22
4.740000,120.001420,30.011686,10000.000000,342.336065,0.000000,72.842423,1.748000,0.000000,63.434949,12.012273,F-22
4.750000,120.001427,30.011716,10000.000000,342.295178,0.000000,73.034316,1.750000,0.000000,63.434949,12.044391,F-22
4.760000,120.001435,30.011747,10000.000000,342.254183,0.000000,73.226185,1.752000,0.000000,63.434949,12.076510,F-22
4.770000,120.001443,30.011778,10000.000000,342.213081,0.000000,73.418031,1.754000,0.000000,63.434949,12.108628,F-22
4.780000,120.001450,30.011809,10000.000000,342.171871,0.000000,73.609855,1.756000,0.000000,63.434949,12.140746,F-22
4.790000,120.001458,30.011839,10000.000000,342.130554,0.000000,73.801655,1.758000,0.000000,63.434949,12.172865,F-22
4.800000,120.001465,30.011870,10000.000000,342.089129,0.000000,73.993432,1.760000,0.000000,63.434949,12.204983,F-22
4.810000,120.001473,30.011901,10000.000000,342.047596,0.000000,74.185186,1.762000,0.000000,63.434949,12.237102,F-22
4.820000,120.001481,30.011931,10000.000000,342.005957,0.000000,74.376916,1.764000,0.000000,63.434949,12.269220,F-22
4.830000,120.001489,30.011962,10000.000000,341.964209,0.000000,74.568623,1.766000,0.000000,63.434949,12.301338,F-22
4.840000,120.001496,30.011993,10000.000000,341.922355,0.000000,74.760307,1.768000,0.000000,63.434949,12.333457,F-22
4.850000,120.001504,30.012023,10000.000000,341.880392,0.000000,74.951967,1.770000,0.000000,63.434949,12.365575,F-22
4.860000,120.001512,30.012054,10000.000000,341.838323,0.000000,75.143604,1.772000,0.000000,63.434949,12.397694,F-22
4.870000,120.001520,30.012085,10000.000000,341.796146,0.000000,75.335217,1.774000,0.000000,63.434949,12.429812,F-22
4.880000,120.001528,30.012115,10000.000000,341.753861,0.000000,75.526806,1.776000,0.000000,63.434949,12.461930,F-22
4.890000,120.001535,30.012146,10000.000000,341.711469,0.000000,75.718371,1.778000,0.000000,63.434949,12.494049,F-22
4.900000,120.001543,30.012177,10000.000000,341.668970,0.000000,75.909913,1.780000,0.000000,63.434949,12.526167,F-22
4.910000,120.001551,30.012207,10000.000000,341.626363,0.000000,76.101431,1.782000,0.000000,63.434949,12.558285,F-22
4.920000,120.001559,30.012238,10000.000000,341.583649,0.000000,76.292925,1.784000,0.000000,63.434949,12.590404,F-22
4.930000,120.001567,30.012268,10000.000000,341.540828,0.000000,76.484395,1.786000,0.000000,63.434949,12.622522,F-22
4.940000,120.001575,30.012299,10000.000000,341.497900,0.000000,76.675841,1.788000,0.000000,63.434949,12.654641,F-22
4.950000,120.001583,30.012330,10000.000000,341.454864,0.000000,76.867263,1.790000,0.000000,63.434949,12.686759,F-22
4.960000,120.001591,30.012360,10000.000000,341.411720,0.000000,77.058661,1.792000,0.000000,63.434949,12.718877,F-22
4.970000,120.001599,30.012391,10000.000000,341.368470,0.000000,77.250034,1.794000,0.000000,63.434949,12.750996,F-22
4.980000,120.001607,30.012422,10000.000000,341.325112,0.000000,77.441384,1.796000,0.000000,63.434949,12.783114,F-22
4.990000,120.001615,30.012452,10000.000000,341.281647,0.000000,77.632709,1.798000,0.000000,63.434949,12.815232,F-22
5.000000,120.001623,30.012483,10000.000000,341.238075,0.000000,77.824009,1.800000,0.000000,63.434949,12.847351,F-22
5.010000,120.001631,30.012513,10000.000000,341.194395,0.000000,78.015285,1.802000,0.000000,63.434949,12.879469,F-22
5.020000,120.001639,30.012544,10000.000000,341.150608,0.000000,78.206537,1.804000,0.000000,63.434949,12.911588,F-22
5.030000,120.001647,30.012575,10000.000000,341.106714,0.000000,78.397764,1.806000,0.000000,63.434949,12.943706,F-22
5.040000,120.001655,30.012605,10000.000000,341.062713,0.000000,78.588966,1.808000,0.000000,63.434949,12.975824,F-22
5.050000,120.001664,30.012636,10000.000000,341.018605,0.000000,78.780144,1.810000,0.000000,63.434949,13.007943,F-22
5.060000,120.001672,30.012666,10000.000000,340.974390,0.000000,78.971297,1.812000,0.000000,63.434949,13.040061,F-22
5.070000,120.001680,30.012697,10000.000000,340.930067,0.000000,79.162425,1.814000,0.000000,63.434949,13.072179,F-22
5.080000,120.001688,30.012727,10000.000000,340.885637,0.000000,79.353528,1.816000,0.000000,63.434949,13.104298,F-22
5.090000,120.001696,30.012758,10000.000000,340.841100,0.000000,79.544606,1.818000,0.000000,63.434949,13.136416,F-22
5.100000,120.001705,30.012789,10000.000000,340.796456,0.000000,79.735659,1.820000,0.000000,63.434949,13.168535,F-22
5.110000,120.001713,30.012819,10000.000000,340.751705,0.000000,79.926688,1.822000,0.000000,63.434949,13.200653,F-22
5.120000,120.001721,30.012850,10000.000000,340.706847,0.000000,80.117691,1.824000,0.000000,63.434949,13.232771,F-22
5.130000,120.001730,30.012880,10000.000000,340.661882,0.000000,80.308669,1.826000,0.000000,63.434949,13.264890,F-22
5.140000,120.001738,30.012911,10000.000000,340.616810,0.000000,80.499621,1.828000,0.000000,63.434949,13.297008,F-22
5.150000,120.001746,30.012941,10000.000000,340.571630,0.000000,80.690549,1.830000,0.000000,63.434949,13.329126,F-22
5.160000,120.001755,30.012972,10000.000000,340.526344,0.000000,80.881451,1.832000,0.000000,63.434949,13.361245,F-22
5.170000,120.001763,30.013002,10000.000000,340.480951,0.000000,81.072327,1.834000,0.000000,63.434949,13.393363,F-22
5.180000,120.001771,30.013033,10000.000000,340.435450,0.000000,81.263179,1.836000,0.000000,63.434949,13.425482,F-22
5.190000,120.001780,30.013064,10000.000000,340.389843,0.000000,81.454004,1.838000,0.000000,63.434949,13.457600,F-22
5.200000,120.001788,30.013094,10000.000000,340.344129,0.000000,81.644804,1.840000,0.000000,63.434949,13.489718,F-22
