Time(s),Longitude(deg),Latitude(deg),Altitude(m),NorthVelocity(m/s),UpVelocity(m/s),EastVelocity(m/s),GForce,Pitch(deg),Roll(deg),Yaw(deg),AircraftType
0.000000,120.000000,30.000000,10000.000000,350.000000,0.000000,0.000000,1.000000,0.000000,0.000000,0.000000,F-22
0.010000,120.000000,30.000000,10000.000000,350.000000,0.000000,0.000000,1.000000,0.000000,0.000000,0.000000,F-22
0.020000,120.000000,30.000000,10000.000000,350.000000,0.000000,0.000000,1.000000,0.000000,0.000000,0.000000,F-22
0.030000,120.000000,30.000000,10000.000000,350.000000,0.000000,0.000000,1.000000,0.000000,0.000000,0.000000,F-22
0.040000,120.000000,30.000000,10000.000000,350.000000,0.000000,0.000000,1.000000,0.000000,0.000000,0.000000,F-22
0.050000,120.000000,30.000000,10000.000000,350.000000,0.000000,0.000000,1.000000,0.000000,0.000000,0.000000,F-22
0.060000,120.000000,30.000000,10000.000000,350.000000,0.000000,0.000000,1.000000,0.000000,0.000000,0.000000,F-22
0.070000,120.000000,30.000000,10000.000000,350.000000,0.000000,0.000000,1.000000,0.000000,0.000000,0.000000,F-22
0.080000,120.000000,30.000000,10000.000000,350.000000,0.000000,0.000000,1.000000,0.000000,0.000000,0.000000,F-22
0.090000,120.000000,30.000000,10000.000000,350.000000,0.000000,0.000000,1.000000,0.000000,0.000000,0.000000,F-22
0.100000,120.000000,30.000000,10000.000000,350.000000,0.000000,0.000000,1.000000,0.000000,0.000000,0.000000,F-22
0.110000,120.000000,30.000000,10000.000000,350.000000,0.000000,0.000000,1.000000,0.000000,0.000000,0.000000,F-22
0.120000,120.000000,30.000000,10000.000000,350.000000,0.000000,0.000000,1.000000,0.000000,0.000000,0.000000,F-22
0.130000,120.000000,30.000000,10000.000000,350.000000,0.000000,0.000000,1.000000,0.000000,0.000000,0.000000,F-22
0.140000,120.000000,30.000000,10000.000000,350.000000,0.000000,0.000000,1.000000,0.000000,0.000000,0.000000,F-22
0.150000,120.000000,30.000000,10000.000000,350.000000,0.000000,0.000000,1.000000,0.000000,0.000000,0.000000,F-22
0.160000,120.000000,30.000000,10000.000000,350.000000,0.000000,0.000000,1.000000,0.000000,0.000000,0.000000,F-22
0.170000,120.000000,30.000000,10000.000000,350.000000,0.000000,0.000000,1.000000,0.000000,0.000000,0.000000,F-22
0.180000,120.000000,30.000000,10000.000000,350.000000,0.000000,0.000000,1.000000,0.000000,0.000000,0.000000,F-22
0.190000,120.000000,30.000000,10000.000000,350.000000,0.000000,0.000000,1.000000,0.000000,0.000000,0.000000,F-22
0.200000,120.000000,30.000000,10000.000000,350.000000,0.000000,0.000000,1.000000,0.000000,0.000000,0.000000,F-22
0.210000,120.000000,30.000000,10000.000000,350.000000,0.000000,0.000000,1.000000,0.000000,0.000000,0.000000,F-22
0.220000,120.000000,30.000000,10000.000000,350.000000,0.000000,0.000000,1.000000,0.000000,0.000000,0.000000,F-22
0.230000,120.000000,30.000000,10000.000000,350.000000,0.000000,0.000000,1.000000,0.000000,0.000000,0.000000,F-22
0.240000,120.000000,30.000000,10000.000000,350.000000,0.000000,0.000000,1.000000,0.000000,0.000000,0.000000,F-22
0.250000,120.000000,30.000000,10000.000000,350.000000,0.000000,0.000000,1.000000,0.000000,0.000000,0.000000,F-22
0.260000,120.000000,30.000000,10000.000000,350.000000,0.000000,0.000000,1.000000,0.000000,0.000000,0.000000,F-22
0.270000,120.000000,30.000000,10000.000000,350.000000,0.000000,0.000000,1.000000,0.000000,0.000000,0.000000,F-22
0.280000,120.000000,30.000000,10000.000000,350.000000,0.000000,0.000000,1.000000,0.000000,0.000000,0.000000,F-22
0.290000,120.000000,30.000000,10000.000000,350.000000,0.000000,0.000000,1.000000,0.000000,0.000000,0.000000,F-22
0.300000,120.000000,30.000000,10000.000000,350.000000,0.000000,0.000000,1.000000,0.000000,0.000000,0.000000,F-22
0.310000,120.000000,30.000000,10000.000000,350.000000,0.000000,0.000000,1.000000,0.000000,0.000000,0.000000,F-22
0.320000,120.000000,30.000000,10000.000000,350.000000,0.000000,0.000000,1.000000,0.000000,0.000000,0.000000,F-22
0.330000,120.000000,30.000000,10000.000000,350.000000,0.000000,0.000000,1.000000,0.000000,0.000000,0.000000,F-22
0.340000,120.000000,30.000000,10000.000000,350.000000,0.000000,0.000000,1.000000,0.000000,0.000000,0.000000,F-22
0.350000,120.000000,30.000000,10000.000000,350.000000,0.000000,0.000000,1.000000,0.000000,0.000000,0.000000,F-22
0.360000,120.000000,30.000000,10000.000000,350.000000,0.000000,0.000000,1.000000,0.000000,0.000000,0.000000,F-22
0.370000,120.000000,30.000000,10000.000000,350.000000,0.000000,0.000000,1.000000,0.000000,0.000000,0.000000,F-22
0.380000,120.000000,30.000000,10000.000000,350.000000,0.000000,0.000000,1.000000,0.000000,0.000000,0.000000,F-22
0.390000,120.000000,30.000000,10000.000000,350.000000,0.000000,0.000000,1.000000,0.000000,0.000000,0.000000,F-22
0.400000,120.000000,30.000000,10000.000000,350.000000,0.000000,0.000000,1.000000,0.000000,0.000000,0.000000,F-22
0.410000,120.000000,30.000000,10000.000000,350.000000,0.000000,0.000000,1.000000,0.000000,0.000000,0.000000,F-22
0.420000,120.000000,30.000000,10000.000000,350.000000,0.000000,0.000000,1.000000,0.000000,0.000000,0.000000,F-22
0.430000,120.000000,30.000000,10000.000000,350.000000,0.000000,0.000000,1.000000,0.000000,0.000000,0.000000,F-22
0.440000,120.000000,30.000000,10000.000000,350.000000,0.000000,0.000000,1.000000,0.000000,0.000000,0.000000,F-22
0.450000,120.000000,30.000000,10000.000000,350.000000,0.000000,0.000000,1.000000,0.000000,0.000000,0.000000,F-22
0.460000,120.000000,30.000000,10000.000000,350.000000,0.000000,0.000000,1.000000,0.000000,0.000000,0.000000,F-22
0.470000,120.000000,30.000000,10000.000000,350.000000,0.000000,0.000000,1.000000,0.000000,0.000000,0.000000,F-22
0.480000,120.000000,30.000000,10000.000000,350.000000,0.000000,0.000000,1.000000,0.000000,0.000000,0.000000,F-22
0.490000,120.000000,30.000000,10000.000000,350.000000,0.000000,0.000000,1.000000,0.000000,0.000000,0.000000,F-22
0.500000,120.000000,30.000000,10000.000000,350.000000,0.000000,0.000000,1.000000,0.000000,0.000000,0.000000,F-22
0.510000,120.000000,30.000000,10000.000000,350.000000,0.000000,0.000000,1.000000,0.000000,0.000000,0.000000,F-22
0.520000,120.000000,30.000000,10000.000000,350.000000,0.000000,0.000000,1.000000,0.000000,0.000000,0.000000,F-22
0.530000,120.000000,30.000000,10000.000000,350.000000,0.000000,0.000000,1.000000,0.000000,0.000000,0.000000,F-22
0.540000,120.000000,30.000000,10000.000000,350.000000,0.000000,0.000000,1.000000,0.000000,0.000000,0.000000,F-22
0.550000,120.000000,30.000000,10000.000000,350.000000,0.000000,0.000000,1.000000,0.000000,0.000000,0.000000,F-22
0.560000,120.000000,30.000000,10000.000000,350.000000,0.000000,0.000000,1.000000,0.000000,0.000000,0.000000,F-22
0.570000,120.000000,30.000000,10000.000000,350.000000,0.000000,0.000000,1.000000,0.000000,0.000000,0.000000,F-22
0.580000,120.000000,30.000000,10000.000000,350.000000,0.000000,0.000000,1.000000,0.000000,0.000000,0.000000,F-22
0.590000,120.000000,30.000000,10000.000000,350.000000,0.000000,0.000000,1.000000,0.000000,0.000000,0.000000,F-22
0.600000,120.000000,30.000000,10000.000000,350.000000,0.000000,0.000000,1.000000,0.000000,0.000000,0.000000,F-22
0.610000,120.000000,30.000000,10000.000000,350.000000,0.000000,0.000000,1.000000,0.000000,0.000000,0.000000,F-22
0.620000,120.000000,30.000000,10000.000000,350.000000,0.000000,0.000000,1.000000,0.000000,0.000000,0.000000,F-22
0.630000,120.000000,30.000000,10000.000000,350.000000,0.000000,0.000000,1.000000,0.000000,0.000000,0.000000,F-22
0.640000,120.000000,30.000000,10000.000000,350.000000,0.000000,0.000000,1.000000,0.000000,0.000000,0.000000,F-22
0.650000,120.000000,30.000000,10000.000000,350.000000,0.000000,0.000000,1.000000,0.000000,0.000000,0.000000,F-22
0.660000,120.000000,30.000000,10000.000000,350.000000,0.000000,0.000000,1.000000,0.000000,0.000000,0.000000,F-22
0.670000,120.000000,30.000000,10000.000000,350.000000,0.000000,0.000000,1.000000,0.000000,0.000000,0.000000,F-22
0.680000,120.000000,30.000000,10000.000000,350.000000,0.000000,0.000000,1.000000,0.000000,0.000000,0.000000,F-22
0.690000,120.000000,30.000000,10000.000000,350.000000,0.000000,0.000000,1.000000,0.000000,0.000000,0.000000,F-22
0.700000,120.000000,30.000000,10000.000000,350.000000,0.000000,0.000000,1.000000,0.000000,0.000000,0.000000,F-22
0.710000,120.000000,30.000000,10000.000000,350.000000,0.000000,0.000000,1.000000,0.000000,0.000000,0.000000,F-22
0.720000,120.000000,30.000000,10000.000000,350.000000,0.000000,0.000000,1.000000,0.000000,0.000000,0.000000,F-22
0.730000,120.000000,30.000000,10000.000000,350.000000,0.000000,0.000000,1.000000,0.000000,0.000000,0.000000,F-22
0.740000,120.000000,30.000000,10000.000000,350.000000,0.000000,0.000000,1.000000,0.000000,0.000000,0.000000,F-22
0.750000,120.000000,30.000000,10000.000000,350.000000,0.000000,0.000000,1.000000,0.000000,0.000000,0.000000,F-22
0.760000,120.000000,30.000000,10000.000000,350.000000,0.000000,0.000000,1.000000,0.000000,0.000000,0.000000,F-22
0.770000,120.000000,30.000000,10000.000000,350.000000,0.000000,0.000000,1.000000,0.000000,0.000000,0.000000,F-22
0.780000,120.000000,30.000000,10000.000000,350.000000,0.000000,0.000000,1.000000,0.000000,0.000000,0.000000,F-22
0.790000,120.000000,30.000000,10000.000000,350.000000,0.000000,0.000000,1.000000,0.000000,0.000000,0.000000,F-22
0.800000,120.000000,30.000000,10000.000000,350.000000,0.000000,0.000000,1.000000,0.000000,0.000000,0.000000,F-22
0.810000,120.000000,30.000000,10000.000000,350.000000,0.000000,0.000000,1.000000,0.000000,0.000000,0.000000,F-22
0.820000,120.000000,30.000000,10000.000000,350.000000,0.000000,0.000000,1.000000,0.000000,0.000000,0.000000,F-22
0.830000,120.000000,30.000000,10000.000000,350.000000,0.000000,0.000000,1.000000,0.000000,0.000000,0.000000,F-22
0.840000,120.000000,30.000000,10000.000000,350.000000,0.000000,0.000000,1.000000,0.000000,0.000000,0.000000,F-22
0.850000,120.000000,30.000000,10000.000000,350.000000,0.000000,0.000000,1.000000,0.000000,0.000000,0.000000,F-22
0.860000,120.000000,30.000000,10000.000000,350.000000,0.000000,0.000000,1.000000,0.000000,0.000000,0.000000,F-22
0.870000,120.000000,30.000000,10000.000000,350.000000,0.000000,0.000000,1.000000,0.000000,0.000000,0.000000,F-22
0.880000,120.000000,30.000000,10000.000000,350.000000,0.000000,0.000000,1.000000,0.000000,0.000000,0.000000,F-22
0.890000,120.000000,30.000000,10000.000000,350.000000,0.000000,0.000000,1.000000,0.000000,0.000000,0.000000,F-22
0.900000,120.000000,30.000000,10000.000000,350.000000,0.000000,0.000000,1.000000,0.000000,0.000000,0.000000,F-22
0.910000,120.000000,30.000000,10000.000000,350.000000,0.000000,0.000000,1.000000,0.000000,0.000000,0.000000,F-22
0.920000,120.000000,30.000000,10000.000000,350.000000,0.000000,0.000000,1.000000,0.000000,0.000000,0.000000,F-22
0.930000,120.000000,30.000000,10000.000000,350.000000,0.000000,0.000000,1.000000,0.000000,0.000000,0.000000,F-22
0.940000,120.000000,30.000000,10000.000000,350.000000,0.000000,0.000000,1.000000,0.000000,0.000000,0.000000,F-22
0.950000,120.000000,30.000000,10000.000000,350.000000,0.000000,0.000000,1.000000,0.000000,0.000000,0.000000,F-22
0.960000,120.000000,30.000000,10000.000000,350.000000,0.000000,0.000000,1.000000,0.000000,0.000000,0.000000,F-22
0.970000,120.000000,30.000000,10000.000000,350.000000,0.000000,0.000000,1.000000,0.000000,0.000000,0.000000,F-22
0.980000,120.000000,30.000000,10000.000000,350.000000,0.000000,0.000000,1.000000,0.000000,0.000000,0.000000,F-22
0.990000,120.000000,30.000000,10000.000000,350.000000,0.000000,0.000000,1.000000,0.000000,0.000000,0.000000,F-22
1.000000,120.000000,30.000031,10000.000000,350.000000,0.000000,0.000000,1.000000,0.000000,0.000000,0.000000,F-22
1.010000,120.000000,30.000063,10000.000000,350.000000,0.000000,0.000000,1.000000,0.000000,0.500000,0.000000,F-22
1.020000,120.000000,30.000094,10000.000000,350.000000,0.000000,0.000000,1.000000,0.000000,1.000000,0.000000,F-22
1.030000,120.000000,30.000126,10000.000000,350.000000,0.000000,0.000000,1.000000,0.000000,1.500000,0.000000,F-22
1.040000,120.000000,30.000157,10000.000000,350.000000,0.000000,0.000000,1.000000,0.000000,2.000000,0.000000,F-22
1.050000,120.000000,30.000188,10000.000000,350.000000,0.000000,0.000000,1.000000,0.000000,2.500000,0.000000,F-22
1.060000,120.000000,30.000220,10000.000000,350.000000,0.000000,0.000000,1.000000,0.000000,3.000000,0.000000,F-22
1.070000,120.000000,30.000251,10000.000000,350.000000,0.000000,0.000000,1.000000,0.000000,3.500000,0.000000,F-22
1.080000,120.000000,30.000283,10000.000000,350.000000,0.000000,0.000000,1.000000,0.000000,4.000000,0.000000,F-22
1.090000,120.000000,30.000314,10000.000000,350.000000,0.000000,0.000000,1.000000,0.000000,4.500000,0.000000,F-22
1.100000,120.000000,30.000345,10000.000000,350.000000,0.000000,0.000000,1.000000,0.000000,5.000000,0.000000,F-22
1.110000,120.000000,30.000377,10000.000000,350.000000,0.000000,0.000000,1.000000,0.000000,5.500000,0.000000,F-22
1.120000,120.000000,30.000408,10000.000000,350.000000,0.000000,0.000000,1.000000,0.000000,6.000000,0.000000,F-22
1.130000,120.000000,30.000439,10000.000000,350.000000,0.000000,0.000000,1.000000,0.000000,6.500000,0.000000,F-22
1.140000,120.000000,30.000471,10000.000000,350.000000,0.000000,0.000000,1.000000,0.000000,7.000000,0.000000,F-22
1.150000,120.000000,30.000502,10000.000000,350.000000,0.000000,0.000000,1.000000,0.000000,7.500000,0.000000,F-22
1.160000,120.000000,30.000534,10000.000000,350.000000,0.000000,0.000000,1.000000,0.000000,8.000000,0.000000,F-22
1.170000,120.000000,30.000565,10000.000000,350.000000,0.000000,0.000000,1.000000,0.000000,8.500000,0.000000,F-22
1.180000,120.000000,30.000596,10000.000000,350.000000,0.000000,0.000000,1.000000,0.000000,9.000000,0.000000,F-22
1.190000,120.000000,30.000628,10000.000000,350.000000,0.000000,0.000000,1.000000,0.000000,9.500000,0.000000,F-22
1.200000,120.000000,30.000659,10000.000000,350.000000,0.000000,0.000000,1.000000,0.000000,10.000000,0.000000,F-22
1.210000,120.000000,30.000691,10000.000000,350.000000,0.000000,0.000000,1.000000,0.000000,10.500000,0.000000,F-22
1.220000,120.000000,30.000722,10000.000000,350.000000,0.000000,0.000000,1.000000,0.000000,11.000000,0.000000,F-22
1.230000,120.000000,30.000753,10000.000000,350.000000,0.000000,0.000000,1.000000,0.000000,11.500000,0.000000,F-22
1.240000,120.000000,30.000785,10000.000000,350.000000,0.000000,0.000000,1.000000,0.000000,12.000000,0.000000,F-22
1.250000,120.000000,30.000816,10000.000000,350.000000,0.000000,0.000000,1.000000,0.000000,12.500000,0.000000,F-22
1.260000,120.000000,30.000848,10000.000000,350.000000,0.000000,0.000000,1.000000,0.000000,13.000000,0.000000,F-22
1.270000,120.000000,30.000879,10000.000000,350.000000,0.000000,0.000000,1.000000,0.000000,13.500000,0.000000,F-22
1.280000,120.000000,30.000910,10000.000000,350.000000,0.000000,0.000000,1.000000,0.000000,14.000000,0.000000,F-22
1.290000,120.000000,30.000942,10000.000000,350.000000,0.000000,0.000000,1.000000,0.000000,14.500000,0.000000,F-22
1.300000,120.000000,30.000973,10000.000000,350.000000,0.000000,0.000000,1.000000,0.000000,15.000000,0.000000,F-22
1.310000,120.000000,30.001005,10000.000000,350.000000,0.000000,0.000000,1.000000,0.000000,15.500000,0.000000,F-22
1.320000,120.000000,30.001036,10000.000000,350.000000,0.000000,0.000000,1.000000,0.000000,16.000000,0.000000,F-22
1.330000,120.000000,30.001067,10000.000000,350.000000,0.000000,0.000000,1.000000,0.000000,16.500000,0.000000,F-22
1.340000,120.000000,30.001099,10000.000000,350.000000,0.000000,0.000000,1.000000,0.000000,17.000000,0.000000,F-22
1.350000,120.000000,30.001130,10000.000000,350.000000,0.000000,0.000000,1.000000,0.000000,17.500000,0.000000,F-22
1.360000,120.000000,30.001161,10000.000000,350.000000,0.000000,0.000000,1.000000,0.000000,18.000000,0.000000,F-22
1.370000,120.000000,30.001193,10000.000000,350.000000,0.000000,0.000000,1.000000,0.000000,18.500000,0.000000,F-22
1.380000,120.000000,30.001224,10000.000000,350.000000,0.000000,0.000000,1.000000,0.000000,19.000000,0.000000,F-22
1.390000,120.000000,30.001256,10000.000000,350.000000,0.000000,0.000000,1.000000,0.000000,19.500000,0.000000,F-22
1.400000,120.000000,30.001287,10000.000000,350.000000,0.000000,0.000000,1.000000,0.000000,20.000000,0.000000,F-22
1.410000,120.000000,30.001318,10000.000000,350.000000,0.000000,0.000000,1.000000,0.000000,20.500000,0.000000,F-22
1.420000,120.000000,30.001350,10000.000000,350.000000,0.000000,0.000000,1.000000,0.000000,21.000000,0.000000,F-22
1.430000,120.000000,30.001381,10000.000000,350.000000,0.000000,0.000000,1.000000,0.000000,21.500000,0.000000,F-22
1.440000,120.000000,30.001413,10000.000000,350.000000,0.000000,0.000000,1.000000,0.000000,22.000000,0.000000,F-22
1.450000,120.000000,30.001444,10000.000000,350.000000,0.000000,0.000000,1.000000,0.000000,22.500000,0.000000,F-22
1.460000,120.000000,30.001475,10000.000000,350.000000,0.000000,0.000000,1.000000,0.000000,23.000000,0.000000,F-22
1.470000,120.000000,30.001507,10000.000000,350.000000,0.000000,0.000000,1.000000,0.000000,23.500000,0.000000,F-22
1.480000,120.000000,30.001538,10000.000000,350.000000,0.000000,0.000000,1.000000,0.000000,24.000000,0.000000,F-22
1.490000,120.000000,30.001570,10000.000000,350.000000,0.000000,0.000000,1.000000,0.000000,24.500000,0.000000,F-22
1.500000,120.000000,30.001601,10000.000000,350.000000,0.000000,0.000000,1.000000,0.000000,25.000000,0.000000,F-22
1.510000,120.000000,30.001632,10000.000000,350.000000,0.000000,0.000000,1.000000,0.000000,25.500000,0.000000,F-22
1.520000,120.000000,30.001664,10000.000000,350.000000,0.000000,0.000000,1.000000,0.000000,26.000000,0.000000,F-22
1.530000,120.000000,30.001695,10000.000000,350.000000,0.000000,0.000000,1.000000,0.000000,26.500000,0.000000,F-22
1.540000,120.000000,30.001727,10000.000000,350.000000,0.000000,0.000000,1.000000,0.000000,27.000000,0.000000,F-22
1.550000,120.000000,30.001758,10000.000000,350.000000,0.000000,0.000000,1.000000,0.000000,27.500000,0.000000,F-22
1.560000,120.000000,30.001789,10000.000000,350.000000,0.000000,0.000000,1.000000,0.000000,28.000000,0.000000,F-22
1.570000,120.000000,30.001821,10000.000000,350.000000,0.000000,0.000000,1.000000,0.000000,28.500000,0.000000,F-22
1.580000,120.000000,30.001852,10000.000000,350.000000,0.000000,0.000000,1.000000,0.000000,29.000000,0.000000,F-22
1.590000,120.000000,30.001884,10000.000000,350.000000,0.000000,0.000000,1.000000,0.000000,29.500000,0.000000,F-22
1.600000,120.000000,30.001915,10000.000000,350.000000,0.000000,0.000000,1.000000,0.000000,30.000000,0.000000,F-22
1.610000,120.000000,30.001946,10000.000000,350.000000,0.000000,0.000000,1.000000,0.000000,30.500000,0.000000,F-22
1.620000,120.000000,30.001978,10000.000000,350.000000,0.000000,0.000000,1.000000,0.000000,31.000000,0.000000,F-22
1.630000,120.000000,30.002009,10000.000000,350.000000,0.000000,0.000000,1.000000,0.000000,31.500000,0.000000,F-22
1.640000,120.000000,30.002040,10000.000000,350.000000,0.000000,0.000000,1.000000,0.000000,32.000000,0.000000,F-22
1.650000,120.000000,30.002072,10000.000000,350.000000,0.000000,0.000000,1.000000,0.000000,32.500000,0.000000,F-22
1.660000,120.000000,30.002103,10000.000000,350.000000,0.000000,0.000000,1.000000,0.000000,33.000000,0.000000,F-22
1.670000,120.000000,30.002135,10000.000000,350.000000,0.000000,0.000000,1.000000,0.000000,33.500000,0.000000,F-22
1.680000,120.000000,30.002166,10000.000000,350.000000,0.000000,0.000000,1.000000,0.000000,34.000000,0.000000,F-22
1.690000,120.000000,30.002197,10000.000000,350.000000,0.000000,0.000000,1.000000,0.000000,34.500000,0.000000,F-22
1.700000,120.000000,30.002229,10000.000000,350.000000,0.000000,0.000000,1.000000,0.000000,35.000000,0.000000,F-22
1.710000,120.000000,30.002260,10000.000000,350.000000,0.000000,0.000000,1.000000,0.000000,35.500000,0.000000,F-22
1.720000,120.000000,30.002292,10000.000000,350.000000,0.000000,0.000000,1.000000,0.000000,36.000000,0.000000,F-22
1.730000,120.000000,30.002323,10000.000000,350.000000,0.000000,0.000000,1.000000,0.000000,36.500000,0.000000,F-22
1.740000,120.000000,30.002354,10000.000000,350.000000,0.000000,0.000000,1.000000,0.000000,37.000000,0.000000,F-22
1.750000,120.000000,30.002386,10000.000000,350.000000,0.000000,0.000000,1.000000,0.000000,37.500000,0.000000,F-22
1.760000,120.000000,30.002417,10000.000000,350.000000,0.000000,0.000000,1.000000,0.000000,38.000000,0.000000,F-22
1.770000,120.000000,30.002449,10000.000000,350.000000,0.000000,0.000000,1.000000,0.000000,38.500000,0.000000,F-22
1.780000,120.000000,30.002480,10000.000000,350.000000,0.000000,0.000000,1.000000,0.000000,39.000000,0.000000,F-22
1.790000,120.000000,30.002511,10000.000000,350.000000,0.000000,0.000000,1.000000,0.000000,39.500000,0.000000,F-22
1.800000,120.000000,30.002543,10000.000000,350.000000,0.000000,0.000000,1.000000,0.000000,40.000000,0.000000,F-22
1.810000,120.000000,30.002574,10000.000000,350.000000,0.000000,0.000000,1.000000,0.000000,40.500000,0.000000,F-22
1.820000,120.000000,30.002606,10000.000000,350.000000,0.000000,0.000000,1.000000,0.000000,41.000000,0.000000,F-22
1.830000,120.000000,30.002637,10000.000000,350.000000,0.000000,0.000000,1.000000,0.000000,41.500000,0.000000,F-22
1.840000,120.000000,30.002668,10000.000000,350.000000,0.000000,0.000000,1.000000,0.000000,42.000000,0.000000,F-22
1.850000,120.000000,30.002700,10000.000000,350.000000,0.000000,0.000000,1.000000,0.000000,42.500000,0.000000,F-22
1.860000,120.000000,30.002731,10000.000000,350.000000,0.000000,0.000000,1.000000,0.000000,43.000000,0.000000,F-22
1.870000,120.000000,30.002762,10000.000000,350.000000,0.000000,0.000000,1.000000,0.000000,43.500000,0.000000,F-22
1.880000,120.000000,30.002794,10000.000000,350.000000,0.000000,0.000000,1.000000,0.000000,44.000000,0.000000,F-22
1.890000,120.000000,30.002825,10000.000000,350.000000,0.000000,0.000000,1.000000,0.000000,44.500000,0.000000,F-22
1.900000,120.000000,30.002857,10000.000000,350.000000,0.000000,0.000000,1.000000,0.000000,45.000000,0.000000,F-22
1.910000,120.000000,30.002888,10000.000000,350.000000,0.000000,0.000000,1.000000,0.000000,45.500000,0.000000,F-22
1.920000,120.000000,30.002919,10000.000000,350.000000,0.000000,0.000000,1.000000,0.000000,46.000000,0.000000,F-22
1.930000,120.000000,30.002951,10000.000000,350.000000,0.000000,0.000000,1.000000,0.000000,46.500000,0.000000,F-22
1.940000,120.000000,30.002982,10000.000000,350.000000,0.000000,0.000000,1.000000,0.000000,47.000000,0.000000,F-22
1.950000,120.000000,30.003014,10000.000000,350.000000,0.000000,0.000000,1.000000,0.000000,47.500000,0.000000,F-22
1.960000,120.000000,30.003045,10000.000000,350.000000,0.000000,0.000000,1.000000,0.000000,48.000000,0.000000,F-22
1.970000,120.000000,30.003076,10000.000000,350.000000,0.000000,0.000000,1.000000,0.000000,48.500000,0.000000,F-22
1.980000,120.000000,30.003108,10000.000000,350.000000,0.000000,0.000000,1.000000,0.000000,49.000000,0.000000,F-22
1.990000,120.000000,30.003139,10000.000000,350.000000,0.000000,0.000000,1.000000,0.000000,49.500000,0.000000,F-22
2.000000,120.000000,30.003171,10000.000000,350.000000,0.000000,0.000000,1.000000,0.000000,50.000000,0.000000,F-22
2.010000,120.000000,30.003202,10000.000000,350.000000,0.000000,0.000000,1.000000,0.000000,50.500000,0.000000,F-22
2.020000,120.000000,30.003233,10000.000000,350.000000,0.000000,0.000000,1.000000,0.000000,51.000000,0.000000,F-22
2.030000,120.000000,30.003265,10000.000000,350.000000,0.000000,0.000000,1.000000,0.000000,51.500000,0.000000,F-22
2.040000,120.000000,30.003296,10000.000000,350.000000,0.000000,0.000000,1.000000,0.000000,52.000000,0.000000,F-22
2.050000,120.000000,30.003328,10000.000000,350.000000,0.000000,0.000000,1.000000,0.000000,52.500000,0.000000,F-22
2.060000,120.000000,30.003359,10000.000000,350.000000,0.000000,0.000000,1.000000,0.000000,53.000000,0.000000,F-22
2.070000,120.000000,30.003390,10000.000000,350.000000,0.000000,0.000000,1.000000,0.000000,53.500000,0.000000,F-22
2.080000,120.000000,30.003422,10000.000000,350.000000,0.000000,0.000000,1.000000,0.000000,54.000000,0.000000,F-22
2.090000,120.000000,30.003453,10000.000000,350.000000,0.000000,0.000000,1.000000,0.000000,54.500000,0.000000,F-22
2.100000,120.000000,30.003484,10000.000000,350.000000,0.000000,0.000000,1.000000,0.000000,55.000000,0.000000,F-22
2.110000,120.000000,30.003516,10000.000000,350.000000,0.000000,0.000000,1.000000,0.000000,55.500000,0.000000,F-22
2.120000,120.000000,30.003547,10000.000000,350.000000,0.000000,0.000000,1.000000,0.000000,56.000000,0.000000,F-22
2.130000,120.000000,30.003579,10000.000000,350.000000,0.000000,0.000000,1.000000,0.000000,56.500000,0.000000,F-22
2.140000,120.000000,30.003610,10000.000000,350.000000,0.000000,0.000000,1.000000,0.000000,57.000000,0.000000,F-22
2.150000,120.000000,30.003641,10000.000000,350.000000,0.000000,0.000000,1.000000,0.000000,57.500000,0.000000,F-22
2.160000,120.000000,30.003673,10000.000000,350.000000,0.000000,0.000000,1.000000,0.000000,58.000000,0.000000,F-22
2.170000,120.000000,30.003704,10000.000000,350.000000,0.000000,0.000000,1.000000,0.000000,58.500000,0.000000,F-22
2.180000,120.000000,30.003736,10000.000000,350.000000,0.000000,0.000000,1.000000,0.000000,59.000000,0.000000,F-22
2.190000,120.000000,30.003767,10000.000000,350.000000,0.000000,0.000000,1.000000,0.000000,59.500000,0.000000,F-22
2.200000,120.000000,30.003798,10000.000000,350.000000,0.000000,0.000000,1.000000,0.000000,60.000000,0.000000,F-22
2.210000,120.000000,30.003830,10000.000000,350.000000,0.000000,0.000000,1.000000,0.000000,60.500000,0.000000,F-22
2.220000,120.000000,30.003861,10000.000000,350.000000,0.000000,0.000000,1.000000,0.000000,61.000000,0.000000,F-22
2.230000,120.000000,30.003893,10000.000000,350.000000,0.000000,0.000000,1.000000,0.000000,61.500000,0.000000,F-22
2.240000,120.000000,30.003924,10000.000000,350.000000,0.000000,0.000000,1.000000,0.000000,62.000000,0.000000,F-22
2.250000,120.000000,30.003955,10000.000000,350.000000,0.000000,0.000000,1.000000,0.000000,62.500000,0.000000,F-22
2.260000,120.000000,30.003987,10000.000000,350.000000,0.000000,0.000000,1.000000,0.000000,63.000000,0.000000,F-22
2.270000,120.000000,30.004018,10000.000000,350.000000,0.000000,0.000000,1.000000,0.000000,63.500000,0.000000,F-22
2.280000,120.000000,30.004050,10000.000000,350.000000,0.000000,0.000000,1.000000,0.000000,64.000000,0.000000,F-22
2.290000,120.000000,30.004081,10000.000000,350.000000,0.000000,0.000000,1.000000,0.000000,64.500000,0.000000,F-22
2.300000,120.000000,30.004112,10000.000000,350.000000,0.000000,0.000000,1.000000,0.000000,65.000000,0.000000,F-22
2.310000,120.000000,30.004144,10000.000000,350.000000,0.000000,0.000000,1.000000,0.000000,65.500000,0.000000,F-22
2.320000,120.000000,30.004175,10000.000000,350.000000,0.000000,0.000000,1.000000,0.000000,66.000000,0.000000,F-22
2.330000,120.000000,30.004207,10000.000000,350.000000,0.000000,0.000000,1.000000,0.000000,66.500000,0.000000,F-22
2.340000,120.000000,30.004238,10000.000000,350.000000,0.000000,0.000000,1.000000,0.000000,67.000000,0.000000,F-22
2.350000,120.000000,30.004269,10000.000000,350.000000,0.000000,0.000000,1.000000,0.000000,67.500000,0.000000,F-22
2.360000,120.000000,30.004301,10000.000000,350.000000,0.000000,0.000000,1.000000,0.000000,68.000000,0.000000,F-22
2.370000,120.000000,30.004332,10000.000000,350.000000,0.000000,0.000000,1.000000,0.000000,68.500000,0.000000,F-22
2.380000,120.000000,30.004363,10000.000000,350.000000,0.000000,0.000000,1.000000,0.000000,69.000000,0.000000,F-22
2.390000,120.000000,30.004395,10000.000000,350.000000,0.000000,0.000000,1.000000,0.000000,69.500000,0.000000,F-22
2.400000,120.000000,30.004426,10000.000000,350.000000,0.000000,0.000000,1.000000,0.000000,70.000000,0.000000,F-22
2.410000,120.000000,30.004458,10000.000000,350.000000,0.000000,0.000000,1.000000,0.000000,70.500000,0.000000,F-22
2.420000,120.000000,30.004489,10000.000000,350.000000,0.000000,0.000000,1.000000,0.000000,71.000000,0.000000,F-22
2.430000,120.000000,30.004520,10000.000000,350.000000,0.000000,0.000000,1.000000,0.000000,71.500000,0.000000,F-22
2.440000,120.000000,30.004552,10000.000000,350.000000,0.000000,0.000000,1.000000,0.000000,72.000000,0.000000,F-22
2.450000,120.000000,30.004583,10000.000000,350.000000,0.000000,0.000000,1.000000,0.000000,72.500000,0.000000,F-22
2.460000,120.000000,30.004615,10000.000000,350.000000,0.000000,0.000000,1.000000,0.000000,73.000000,0.000000,F-22
2.470000,120.000000,30.004646,10000.000000,350.000000,0.000000,0.000000,1.000000,0.000000,73.500000,0.000000,F-22
2.480000,120.000000,30.004677,10000.000000,350.000000,0.000000,0.000000,1.000000,0.000000,74.000000,0.000000,F-22
2.490000,120.000000,30.004709,10000.000000,350.000000,0.000000,0.000000,1.000000,0.000000,74.500000,0.000000,F-22
2.500000,120.000000,30.004740,10000.000000,350.000000,0.000000,0.000000,1.000000,0.000000,75.000000,0.000000,F-22
2.510000,120.000000,30.004772,10000.000000,350.000000,0.000000,0.000000,1.000000,0.000000,75.500000,0.000000,F-22
2.520000,120.000000,30.004803,10000.000000,350.000000,0.000000,0.000000,1.000000,0.000000,76.000000,0.000000,F-22
2.530000,120.000000,30.004834,10000.000000,350.000000,0.000000,0.000000,1.000000,0.000000,76.500000,0.000000,F-22
2.540000,120.000000,30.004866,10000.000000,350.000000,0.000000,0.000000,1.000000,0.000000,77.000000,0.000000,F-22
2.550000,120.000000,30.004897,10000.000000,350.000000,0.000000,0.000000,1.000000,0.000000,77.500000,0.000000,F-22
2.560000,120.000000,30.004929,10000.000000,350.000000,0.000000,0.000000,1.000000,0.000000,78.000000,0.000000,F-22
2.570000,120.000000,30.004960,10000.000000,350.000000,0.000000,0.000000,1.000000,0.000000,78.500000,0.000000,F-22
2.580000,120.000000,30.004991,10000.000000,350.000000,0.000000,0.000000,1.000000,0.000000,79.000000,0.000000,F-22
2.590000,120.000000,30.005023,10000.000000,350.000000,0.000000,0.000000,1.000000,0.000000,79.500000,0.000000,F-22
2.600000,120.000000,30.005054,10000.000000,350.000000,0.000000,0.000000,1.000000,0.000000,80.000000,0.000000,F-22
2.610000,120.000000,30.005085,10000.000000,350.000000,0.000000,0.000000,1.000000,0.000000,80.500000,0.000000,F-22
2.620000,120.000000,30.005117,10000.000000,350.000000,0.000000,0.000000,1.000000,0.000000,81.000000,0.000000,F-22
2.630000,120.000000,30.005148,10000.000000,350.000000,0.000000,0.000000,1.000000,0.000000,81.500000,0.000000,F-22
2.640000,120.000000,30.005180,10000.000000,350.000000,0.000000,0.000000,1.000000,0.000000,82.000000,0.000000,F-22
2.650000,120.000000,30.005211,10000.000000,350.000000,0.000000,0.000000,1.000000,0.000000,82.500000,0.000000,F-22
2.660000,120.000000,30.005242,10000.000000,350.000000,0.000000,0.000000,1.000000,0.000000,83.000000,0.000000,F-22
2.670000,120.000000,30.005274,10000.000000,350.000000,0.000000,0.000000,1.000000,0.000000,83.500000,0.000000,F-22
2.680000,120.000000,30.005305,10000.000000,350.000000,0.000000,0.000000,1.000000,0.000000,84.000000,0.000000,F-22
2.690000,120.000000,30.005337,10000.000000,350.000000,0.000000,0.000000,1.000000,0.000000,84.500000,0.000000,F-22
2.700000,120.000000,30.005368,10000.000000,350.000000,0.000000,0.000000,1.000000,0.000000,85.000000,0.000000,F-22
2.710000,120.000000,30.005399,10000.000000,350.000000,0.000000,0.000000,1.000000,0.000000,85.500000,0.000000,F-22
2.720000,120.000000,30.005431,10000.000000,350.000000,0.000000,0.000000,1.000000,0.000000,86.000000,0.000000,F-22
2.730000,120.000000,30.005462,10000.000000,350.000000,0.000000,0.000000,1.000000,0.000000,86.500000,0.000000,F-22
2.740000,120.000000,30.005494,10000.000000,350.000000,0.000000,0.000000,1.000000,0.000000,87.000000,0.000000,F-22
2.750000,120.000000,30.005525,10000.000000,350.000000,0.000000,0.000000,1.000000,0.000000,87.500000,0.000000,F-22
2.760000,120.000000,30.005556,10000.000000,350.000000,0.000000,0.000000,1.000000,0.000000,88.000000,0.000000,F-22
2.770000,120.000000,30.005588,10000.000000,350.000000,0.000000,0.000000,1.000000,0.000000,88.500000,0.000000,F-22
2.780000,120.000000,30.005619,10000.000000,350.000000,0.000000,0.000000,1.000000,0.000000,89.000000,0.000000,F-22
2.790000,120.000000,30.005651,10000.000000,350.000000,0.000000,0.000000,1.000000,0.000000,89.500000,0.000000,F-22
2.800000,120.000000,30.005682,10000.000000,350.000000,0.000000,0.000000,1.000000,0.000000,90.000000,0.000000,F-22
2.810000,120.000000,30.005713,10000.000000,350.000000,0.000000,0.000000,1.000000,0.000000,90.500000,0.000000,F-22
2.820000,120.000000,30.005745,10000.000000,350.000000,0.000000,0.000000,1.000000,0.000000,91.000000,0.000000,F-22
2.830000,120.000000,30.005776,10000.000000,350.000000,0.000000,0.000000,1.000000,0.000000,91.500000,0.000000,F-22
2.840000,120.000000,30.005807,10000.000000,350.000000,0.000000,0.000000,1.000000,0.000000,92.000000,0.000000,F-22
2.850000,120.000000,30.005839,10000.000000,350.000000,0.000000,0.000000,1.000000,0.000000,92.500000,0.000000,F-22
2.860000,120.000000,30.005870,10000.000000,350.000000,0.000000,0.000000,1.000000,0.000000,93.000000,0.000000,F-22
2.870000,120.000000,30.005902,10000.000000,350.000000,0.000000,0.000000,1.000000,0.000000,93.500000,0.000000,F-22
2.880000,120.000000,30.005933,10000.000000,350.000000,0.000000,0.000000,1.000000,0.000000,94.000000,0.000000,F-22
2.890000,120.000000,30.005964,10000.000000,350.000000,0.000000,0.000000,1.000000,0.000000,94.500000,0.000000,F-22
2.900000,120.000000,30.005996,10000.000000,350.000000,0.000000,0.000000,1.000000,0.000000,95.000000,0.000000,F-22
2.910000,120.000000,30.006027,10000.000000,350.000000,0.000000,0.000000,1.000000,0.000000,95.500000,0.000000,F-22
2.920000,120.000000,30.006059,10000.000000,350.000000,0.000000,0.000000,1.000000,0.000000,96.000000,0.000000,F-22
2.930000,120.000000,30.006090,10000.000000,350.000000,0.000000,0.000000,1.000000,0.000000,96.500000,0.000000,F-22
2.940000,120.000000,30.006121,10000.000000,350.000000,0.000000,0.000000,1.000000,0.000000,97.000000,0.000000,F-22
2.950000,120.000000,30.006153,10000.000000,350.000000,0.000000,0.000000,1.000000,0.000000,97.500000,0.000000,F-22
2.960000,120.000000,30.006184,10000.000000,350.000000,0.000000,0.000000,1.000000,0.000000,98.000000,0.000000,F-22
2.970000,120.000000,30.006216,10000.000000,350.000000,0.000000,0.000000,1.000000,0.000000,98.500000,0.000000,F-22
2.980000,120.000000,30.006247,10000.000000,350.000000,0.000000,0.000000,1.000000,0.000000,99.000000,0.000000,F-22
2.990000,120.000000,30.006278,10000.000000,350.000000,0.000000,0.000000,1.000000,0.000000,99.500000,0.000000,F-22
3.000000,120.000000,30.006310,10000.000000,350.000000,0.000000,0.000000,1.000000,0.000000,100.000000,0.000000,F-22
3.010000,120.000000,30.006341,10000.000000,350.000000,0.000000,0.000000,1.000000,0.000000,100.500000,0.000000,F-22
3.020000,120.000000,30.006373,10000.000000,350.000000,0.000000,0.000000,1.000000,0.000000,101.000000,0.000000,F-22
3.030000,120.000000,30.006404,10000.000000,350.000000,0.000000,0.000000,1.000000,0.000000,101.500000,0.000000,F-22
3.040000,120.000000,30.006435,10000.000000,350.000000,0.000000,0.000000,1.000000,0.000000,102.000000,0.000000,F-22
3.050000,120.000000,30.006467,10000.000000,350.000000,0.000000,0.000000,1.000000,0.000000,102.500000,0.000000,F-22
3.060000,120.000000,30.006498,10000.000000,350.000000,0.000000,0.000000,1.000000,0.000000,103.000000,0.000000,F-22
3.070000,120.000000,30.006529,10000.000000,350.000000,0.000000,0.000000,1.000000,0.000000,103.500000,0.000000,F-22
3.080000,120.000000,30.006561,10000.000000,350.000000,0.000000,0.000000,1.000000,0.000000,104.000000,0.000000,F-22
3.090000,120.000000,30.006592,10000.000000,350.000000,0.000000,0.000000,1.000000,0.000000,104.500000,0.000000,F-22
3.100000,120.000000,30.006624,10000.000000,350.000000,0.000000,0.000000,1.000000,0.000000,105.000000,0.000000,F-22
3.110000,120.000000,30.006655,10000.000000,350.000000,0.000000,0.000000,1.000000,0.000000,105.500000,0.000000,F-22
3.120000,120.000000,30.006686,10000.000000,350.000000,0.000000,0.000000,1.000000,0.000000,106.000000,0.000000,F-22
3.130000,120.000000,30.006718,10000.000000,350.000000,0.000000,0.000000,1.000000,0.000000,106.500000,0.000000,F-22
3.140000,120.000000,30.006749,10000.000000,350.000000,0.000000,0.000000,1.000000,0.000000,107.000000,0.000000,F-22
3.150000,120.000000,30.006781,10000.000000,350.000000,0.000000,0.000000,1.000000,0.000000,107.500000,0.000000,F-22
3.160000,120.000000,30.006812,10000.000000,350.000000,0.000000,0.000000,1.000000,0.000000,108.000000,0.000000,F-22
3.170000,120.000000,30.006843,10000.000000,350.000000,0.000000,0.000000,1.000000,0.000000,108.500000,0.000000,F-22
3.180000,120.000000,30.006875,10000.000000,350.000000,0.000000,0.000000,1.000000,0.000000,109.000000,0.000000,F-22
3.190000,120.000000,30.006906,10000.000000,350.000000,0.000000,0.000000,1.000000,0.000000,109.500000,0.000000,F-22
3.200000,120.000000,30.006938,10000.000000,350.000000,0.000000,0.000000,1.000000,0.000000,110.000000,0.000000,F-22
3.210000,120.000000,30.006969,10000.000000,350.000000,0.000000,0.000000,1.000000,0.000000,110.500000,0.000000,F-22
3.220000,120.000000,30.007000,10000.000000,350.000000,0.000000,0.000000,1.000000,0.000000,111.000000,0.000000,F-22
3.230000,120.000000,30.007032,10000.000000,350.000000,0.000000,0.000000,1.000000,0.000000,111.500000,0.000000,F-22
3.240000,120.000000,30.007063,10000.000000,350.000000,0.000000,0.000000,1.000000,0.000000,112.000000,0.000000,F-22
3.250000,120.000000,30.007095,10000.000000,350.000000,0.000000,0.000000,1.000000,0.000000,112.500000,0.000000,F-22
3.260000,120.000000,30.007126,10000.000000,350.000000,0.000000,0.000000,1.000000,0.000000,113.000000,0.000000,F-22
3.270000,120.000000,30.007157,10000.000000,350.000000,0.000000,0.000000,1.000000,0.000000,113.500000,0.000000,F-22
3.280000,120.000000,30.007189,10000.000000,350.000000,0.000000,0.000000,1.000000,0.000000,114.000000,0.000000,F-22
3.290000,120.000000,30.007220,10000.000000,350.000000,0.000000,0.000000,1.000000,0.000000,114.500000,0.000000,F-22
3.300000,120.000000,30.007252,10000.000000,350.000000,0.000000,0.000000,1.000000,0.000000,115.000000,0.000000,F-22
3.310000,120.000000,30.007283,10000.000000,350.000000,0.000000,0.000000,1.000000,0.000000,115.500000,0.000000,F-22
3.320000,120.000000,30.007314,10000.000000,350.000000,0.000000,0.000000,1.000000,0.000000,116.000000,0.000000,F-22
3.330000,120.000000,30.007346,10000.000000,350.000000,0.000000,0.000000,1.000000,0.000000,116.500000,0.000000,F-22
3.340000,120.000000,30.007377,10000.000000,350.000000,0.000000,0.000000,1.000000,0.000000,117.000000,0.000000,F-22
3.350000,120.000000,30.007408,10000.000000,350.000000,0.000000,0.000000,1.000000,0.000000,117.500000,0.000000,F-22
3.360000,120.000000,30.007440,10000.000000,350.000000,0.000000,0.000000,1.000000,0.000000,118.000000,0.000000,F-22
3.370000,120.000000,30.007471,10000.000000,350.000000,0.000000,0.000000,1.000000,0.000000,118.500000,0.000000,F-22
3.380000,120.000000,30.007503,10000.000000,350.000000,0.000000,0.000000,1.000000,0.000000,119.000000,0.000000,F-22
3.390000,120.000000,30.007534,10000.000000,350.000000,0.000000,0.000000,1.000000,0.000000,119.500000,0.000000,F-22
3.400000,120.000000,30.007565,10000.000000,350.000000,0.000000,0.000000,1.000000,0.000000,120.000000,0.000000,F-22
3.410000,120.000000,30.007597,10000.000000,350.000000,0.000000,0.000000,1.000000,0.000000,120.500000,0.000000,F-22
3.420000,120.000000,30.007628,10000.000000,350.000000,0.000000,0.000000,1.000000,0.000000,121.000000,0.000000,F-22
3.430000,120.000000,30.007660,10000.000000,350.000000,0.000000,0.000000,1.000000,0.000000,121.500000,0.000000,F-22
3.440000,120.000000,30.007691,10000.000000,350.000000,0.000000,0.000000,1.000000,0.000000,122.000000,0.000000,F-22
3.450000,120.000000,30.007722,10000.000000,350.000000,0.000000,0.000000,1.000000,0.000000,122.500000,0.000000,F-22
3.460000,120.000000,30.007754,10000.000000,350.000000,0.000000,0.000000,1.000000,0.000000,123.000000,0.000000,F-22
3.470000,120.000000,30.007785,10000.000000,350.000000,0.000000,0.000000,1.000000,0.000000,123.500000,0.000000,F-22
3.480000,120.000000,30.007817,10000.000000,350.000000,0.000000,0.000000,1.000000,0.000000,124.000000,0.000000,F-22
3.490000,120.000000,30.007848,10000.000000,350.000000,0.000000,0.000000,1.000000,0.000000,124.500000,0.000000,F-22
3.500000,120.000000,30.007879,10000.000000,350.000000,0.000000,0.000000,1.000000,0.000000,125.000000,0.000000,F-22
3.510000,120.000000,30.007911,10000.000000,350.000000,0.000000,0.000000,1.000000,0.000000,125.500000,0.000000,F-22
3.520000,120.000000,30.007942,10000.000000,350.000000,0.000000,0.000000,1.000000,0.000000,126.000000,0.000000,F-22
3.530000,120.000000,30.007974,10000.000000,350.000000,0.000000,0.000000,1.000000,0.000000,126.500000,0.000000,F-22
3.540000,120.000000,30.008005,10000.000000,350.000000,0.000000,0.000000,1.000000,0.000000,127.000000,0.000000,F-22
3.550000,120.000000,30.008036,10000.000000,350.000000,0.000000,0.000000,1.000000,0.000000,127.500000,0.000000,F-22
3.560000,120.000000,30.008068,10000.000000,350.000000,0.000000,0.000000,1.000000,0.000000,128.000000,0.000000,F-22
3.570000,120.000000,30.008099,10000.000000,350.000000,0.000000,0.000000,1.000000,0.000000,128.500000,0.000000,F-22
3.580000,120.000000,30.008130,10000.000000,350.000000,0.000000,0.000000,1.000000,0.000000,129.000000,0.000000,F-22
3.590000,120.000000,30.008162,10000.000000,350.000000,0.000000,0.000000,1.000000,0.000000,129.500000,0.000000,F-22
3.600000,120.000000,30.008193,10000.000000,350.000000,0.000000,0.000000,1.000000,0.000000,130.000000,0.000000,F-22
3.610000,120.000000,30.008225,10000.000000,350.000000,0.000000,0.000000,1.000000,0.000000,130.500000,0.000000,F-22
3.620000,120.000000,30.008256,10000.000000,350.000000,0.000000,0.000000,1.000000,0.000000,131.000000,0.000000,F-22
3.630000,120.000000,30.008287,10000.000000,350.000000,0.000000,0.000000,1.000000,0.000000,131.500000,0.000000,F-22
3.640000,120.000000,30.008319,10000.000000,350.000000,0.000000,0.000000,1.000000,0.000000,132.000000,0.000000,F-22
3.650000,120.000000,30.008350,10000.000000,350.000000,0.000000,0.000000,1.000000,0.000000,132.500000,0.000000,F-22
3.660000,120.000000,30.008382,10000.000000,350.000000,0.000000,0.000000,1.000000,0.000000,133.000000,0.000000,F-22
3.670000,120.000000,30.008413,10000.000000,350.000000,0.000000,0.000000,1.000000,0.000000,133.500000,0.000000,F-22
3.680000,120.000000,30.008444,10000.000000,350.000000,0.000000,0.000000,1.000000,0.000000,134.000000,0.000000,F-22
3.690000,120.000000,30.008476,10000.000000,350.000000,0.000000,0.000000,1.000000,0.000000,134.500000,0.000000,F-22
3.700000,120.000000,30.008507,10000.000000,350.000000,0.000000,0.000000,1.000000,0.000000,135.000000,0.000000,F-22
3.710000,120.000000,30.008539,10000.000000,350.000000,0.000000,0.000000,1.000000,0.000000,135.500000,0.000000,F-22
3.720000,120.000000,30.008570,10000.000000,350.000000,0.000000,0.000000,1.000000,0.000000,136.000000,0.000000,F-22
3.730000,120.000000,30.008601,10000.000000,350.000000,0.000000,0.000000,1.000000,0.000000,136.500000,0.000000,F-22
3.740000,120.000000,30.008633,10000.000000,350.000000,0.000000,0.000000,1.000000,0.000000,137.000000,0.000000,F-22
3.750000,120.000000,30.008664,10000.000000,350.000000,0.000000,0.000000,1.000000,0.000000,137.500000,0.000000,F-22
3.760000,120.000000,30.008696,10000.000000,350.000000,0.000000,0.000000,1.000000,0.000000,138.000000,0.000000,F-22
3.770000,120.000000,30.008727,10000.000000,350.000000,0.000000,0.000000,1.000000,0.000000,138.500000,0.000000,F-22
3.780000,120.000000,30.008758,10000.000000,350.000000,0.000000,0.000000,1.000000,0.000000,139.000000,0.000000,F-22
3.790000,120.000000,30.008790,10000.000000,350.000000,0.000000,0.000000,1.000000,0.000000,139.500000,0.000000,F-22
3.800000,120.000000,30.008821,10000.000000,350.000000,0.000000,0.000000,1.000000,0.000000,140.000000,0.000000,F-22
3.810000,120.000000,30.008852,10000.000000,350.000000,0.000000,0.000000,1.000000,0.000000,140.500000,0.000000,F-22
3.820000,120.000000,30.008884,10000.000000,350.000000,0.000000,0.000000,1.000000,0.000000,141.000000,0.000000,F-22
3.830000,120.000000,30.008915,10000.000000,350.000000,0.000000,0.000000,1.000000,0.000000,141.500000,0.000000,F-22
3.840000,120.000000,30.008947,10000.000000,350.000000,0.000000,0.000000,1.000000,0.000000,142.000000,0.000000,F-22
3.850000,120.000000,30.008978,10000.000000,350.000000,0.000000,0.000000,1.000000,0.000000,142.500000,0.000000,F-22
3.860000,120.000000,30.009009,10000.000000,350.000000,0.000000,0.000000,1.000000,0.000000,143.000000,0.000000,F-22
3.870000,120.000000,30.009041,10000.000000,350.000000,0.000000,0.000000,1.000000,0.000000,143.500000,0.000000,F-22
3.880000,120.000000,30.009072,10000.000000,350.000000,0.000000,0.000000,1.000000,0.000000,144.000000,0.000000,F-22
3.890000,120.000000,30.009104,10000.000000,350.000000,0.000000,0.000000,1.000000,0.000000,144.500000,0.000000,F-22
3.900000,120.000000,30.009135,10000.000000,350.000000,0.000000,0.000000,1.000000,0.000000,145.000000,0.000000,F-22
3.910000,120.000000,30.009166,10000.000000,350.000000,0.000000,0.000000,1.000000,0.000000,145.500000,0.000000,F-22
3.920000,120.000000,30.009198,10000.000000,350.000000,0.000000,0.000000,1.000000,0.000000,146.000000,0.000000,F-22
3.930000,120.000000,30.009229,10000.000000,350.000000,0.000000,0.000000,1.000000,0.000000,146.500000,0.000000,F-22
3.940000,120.000000,30.009261,10000.000000,350.000000,0.000000,0.000000,1.000000,0.000000,147.000000,0.000000,F-22
3.950000,120.000000,30.009292,10000.000000,350.000000,0.000000,0.000000,1.000000,0.000000,147.500000,0.000000,F-22
3.960000,120.000000,30.009323,10000.000000,350.000000,0.000000,0.000000,1.000000,0.000000,148.000000,0.000000,F-22
3.970000,120.000000,30.009355,10000.000000,350.000000,0.000000,0.000000,1.000000,0.000000,148.500000,0.000000,F-22
3.980000,120.000000,30.009386,10000.000000,350.000000,0.000000,0.000000,1.000000,0.000000,149.000000,0.000000,F-22
3.990000,120.000000,30.009418,10000.000000,350.000000,0.000000,0.000000,1.000000,0.000000,149.500000,0.000000,F-22
4.000000,120.000000,30.009449,10000.000000,350.000000,0.000000,0.000000,1.000000,0.000000,150.000000,0.000000,F-22
4.010000,120.000000,30.009480,10000.000000,350.000000,0.000000,0.000000,1.000000,0.000000,150.500000,0.000000,F-22
4.020000,120.000000,30.009512,10000.000000,350.000000,0.000000,0.000000,1.000000,0.000000,151.000000,0.000000,F-22
4.030000,120.000000,30.009543,10000.000000,350.000000,0.000000,0.000000,1.000000,0.000000,151.500000,0.000000,F-22
4.040000,120.000000,30.009575,10000.000000,350.000000,0.000000,0.000000,1.000000,0.000000,152.000000,0.000000,F-22
4.050000,120.000000,30.009606,10000.000000,350.000000,0.000000,0.000000,1.000000,0.000000,152.500000,0.000000,F-22
4.060000,120.000000,30.009637,10000.000000,350.000000,0.000000,0.000000,1.000000,0.000000,153.000000,0.000000,F-22
4.070000,120.000000,30.009669,10000.000000,350.000000,0.000000,0.000000,1.000000,0.000000,153.500000,0.000000,F-22
4.080000,120.000000,30.009700,10000.000000,350.000000,0.000000,0.000000,1.000000,0.000000,154.000000,0.000000,F-22
4.090000,120.000000,30.009731,10000.000000,350.000000,0.000000,0.000000,1.000000,0.000000,154.500000,0.000000,F-22
4.100000,120.000000,30.009763,10000.000000,350.000000,0.000000,0.000000,1.000000,0.000000,155.000000,0.000000,F-22
4.110000,120.000000,30.009794,10000.000000,350.000000,0.000000,0.000000,1.000000,0.000000,155.500000,0.000000,F-22
4.120000,120.000000,30.009826,10000.000000,350.000000,0.000000,0.000000,1.000000,0.000000,156.000000,0.000000,F-22
4.130000,120.000000,30.009857,10000.000000,350.000000,0.000000,0.000000,1.000000,0.000000,156.500000,0.000000,F-22
4.140000,120.000000,30.009888,10000.000000,350.000000,0.000000,0.000000,1.000000,0.000000,157.000000,0.000000,F-22
4.150000,120.000000,30.009920,10000.000000,350.000000,0.000000,0.000000,1.000000,0.000000,157.500000,0.000000,F-22
4.160000,120.000000,30.009951,10000.000000,350.000000,0.000000,0.000000,1.000000,0.000000,158.000000,0.000000,F-22
4.170000,120.000000,30.009983,10000.000000,350.000000,0.000000,0.000000,1.000000,0.000000,158.500000,0.000000,F-22
4.180000,120.000000,30.010014,10000.000000,350.000000,0.000000,0.000000,1.000000,0.000000,159.000000,0.000000,F-22
4.190000,120.000000,30.010045,10000.000000,350.000000,0.000000,0.000000,1.000000,0.000000,159.500000,0.000000,F-22
4.200000,120.000000,30.010077,10000.000000,350.000000,0.000000,0.000000,1.000000,0.000000,160.000000,0.000000,F-22
4.210000,120.000000,30.010108,10000.000000,350.000000,0.000000,0.000000,1.000000,0.000000,160.500000,0.000000,F-22
4.220000,120.000000,30.010140,10000.000000,350.000000,0.000000,0.000000,1.000000,0.000000,161.000000,0.000000,F-22
4.230000,120.000000,30.010171,10000.000000,350.000000,0.000000,0.000000,1.000000,0.000000,161.500000,0.000000,F-22
4.240000,120.000000,30.010202,10000.000000,350.000000,0.000000,0.000000,1.000000,0.000000,162.000000,0.000000,F-22
4.250000,120.000000,30.010234,10000.000000,350.000000,0.000000,0.000000,1.000000,0.000000,162.500000,0.000000,F-22
4.260000,120.000000,30.010265,10000.000000,350.000000,0.000000,0.000000,1.000000,0.000000,163.000000,0.000000,F-22
4.270000,120.000000,30.010297,10000.000000,350.000000,0.000000,0.000000,1.000000,0.000000,163.500000,0.000000,F-22
4.280000,120.000000,30.010328,10000.000000,350.000000,0.000000,0.000000,1.000000,0.000000,164.000000,0.000000,F-22
4.290000,120.000000,30.010359,10000.000000,350.000000,0.000000,0.000000,1.000000,0.000000,164.500000,0.000000,F-22
4.300000,120.000000,30.010391,10000.000000,350.000000,0.000000,0.000000,1.000000,0.000000,165.000000,0.000000,F-22
4.310000,120.000000,30.010422,10000.000000,350.000000,0.000000,0.000000,1.000000,0.000000,165.500000,0.000000,F-22
4.320000,120.000000,30.010453,10000.000000,350.000000,0.000000,0.000000,1.000000,0.000000,166.000000,0.000000,F-22
4.330000,120.000000,30.010485,10000.000000,350.000000,0.000000,0.000000,1.000000,0.000000,166.500000,0.000000,F-22
4.340000,120.000000,30.010516,10000.000000,350.000000,0.000000,0.000000,1.000000,0.000000,167.000000,0.000000,F-22
4.350000,120.000000,30.010548,10000.000000,350.000000,0.000000,0.000000,1.000000,0.000000,167.500000,0.000000,F-22
4.360000,120.000000,30.010579,10000.000000,350.000000,0.000000,0.000000,1.000000,0.000000,168.000000,0.000000,F-22
4.370000,120.000000,30.010610,10000.000000,350.000000,0.000000,0.000000,1.000000,0.000000,168.500000,0.000000,F-22
4.380000,120.000000,30.010642,10000.000000,350.000000,0.000000,0.000000,1.000000,0.000000,169.000000,0.000000,F-22
4.390000,120.000000,30.010673,10000.000000,350.000000,0.000000,0.000000,1.000000,0.000000,169.500000,0.000000,F-22
4.400000,120.000000,30.010705,10000.000000,350.000000,0.000000,0.000000,1.000000,0.000000,170.000000,0.000000,F-22
4.410000,120.000000,30.010736,10000.000000,350.000000,0.000000,0.000000,1.000000,0.000000,170.500000,0.000000,F-22
4.420000,120.000000,30.010767,10000.000000,350.000000,0.000000,0.000000,1.000000,0.000000,171.000000,0.000000,F-22
4.430000,120.000000,30.010799,10000.000000,350.000000,0.000000,0.000000,1.000000,0.000000,171.500000,0.000000,F-22
4.440000,120.000000,30.010830,10000.000000,350.000000,0.000000,0.000000,1.000000,0.000000,172.000000,0.000000,F-22
4.450000,120.000000,30.010862,10000.000000,350.000000,0.000000,0.000000,1.000000,0.000000,172.500000,0.000000,F-22
4.460000,120.000000,30.010893,10000.000000,350.000000,0.000000,0.000000,1.000000,0.000000,173.000000,0.000000,F-22
4.470000,120.000000,30.010924,10000.000000,350.000000,0.000000,0.000000,1.000000,0.000000,173.500000,0.000000,F-22
4.480000,120.000000,30.010956,10000.000000,350.000000,0.000000,0.000000,1.000000,0.000000,174.000000,0.000000,F-22
4.490000,120.000000,30.010987,10000.000000,350.000000,0.000000,0.000000,1.000000,0.000000,174.500000,0.000000,F-22
4.500000,120.000000,30.011019,10000.000000,350.000000,0.000000,0.000000,1.000000,0.000000,175.000000,0.000000,F-22
4.510000,120.000000,30.011050,10000.000000,350.000000,0.000000,0.000000,1.000000,0.000000,175.500000,0.000000,F-22
4.520000,120.000000,30.011081,10000.000000,350.000000,0.000000,0.000000,1.000000,0.000000,176.000000,0.000000,F-22
4.530000,120.000000,30.011113,10000.000000,350.000000,0.000000,0.000000,1.000000,0.000000,176.500000,0.000000,F-22
4.540000,120.000000,30.011144,10000.000000,350.000000,0.000000,0.000000,1.000000,0.000000,177.000000,0.000000,F-22
4.550000,120.000000,30.011175,10000.000000,350.000000,0.000000,0.000000,1.000000,0.000000,177.500000,0.000000,F-22
4.560000,120.000000,30.011207,10000.000000,350.000000,0.000000,0.000000,1.000000,0.000000,178.000000,0.000000,F-22
4.570000,120.000000,30.011238,10000.000000,350.000000,0.000000,0.000000,1.000000,0.000000,178.500000,0.000000,F-22
4.580000,120.000000,30.011270,10000.000000,350.000000,0.000000,0.000000,1.000000,0.000000,179.000000,0.000000,F-22
4.590000,120.000000,30.011301,10000.000000,350.000000,0.000000,0.000000,1.000000,0.000000,179.500000,0.000000,F-22
4.600000,120.000000,30.011332,10000.000000,350.000000,0.000000,0.000000,1.000000,0.000000,180.000000,0.000000,F-22
4.610000,120.000000,30.011364,9999.986910,349.997552,-1.308994,0.000000,1.002381,-0.214286,180.000000,0.000000,F-22
4.620000,120.000000,30.011395,9999.960730,349.990209,-2.617969,0.000000,1.004762,-0.428571,180.000000,0.000000,F-22
4.630000,120.000000,30.011427,9999.921461,349.977970,-3.926908,0.000000,1.007143,-0.642857,180.000000,0.000000,F-22
4.640000,120.000000,30.011458,9999.869103,349.960836,-5.235792,0.000000,1.009524,-0.857143,180.000000,0.000000,F-22
4.650000,120.000000,30.011489,9999.803657,349.938806,-6.544603,0.000000,1.011905,-1.071429,180.000000,0.000000,F-22
4.660000,120.000000,30.011521,9999.725124,349.911882,-7.853323,0.000000,1.014286,-1.285714,180.000000,0.000000,F-22
4.670000,120.000000,30.011552,9999.633505,349.880064,-9.161932,0.000000,1.016667,-1.500000,180.000000,0.000000,F-22
4.680000,120.000000,30.011584,9999.528801,349.843351,-10.470413,0.000000,1.019048,-1.714286,180.000000,0.000000,F-22
4.690000,120.000000,30.011615,9999.411013,349.801745,-11.778748,0.000000,1.021429,-1.928571,180.000000,0.000000,F-22
4.700000,120.000000,30.011646,9999.280144,349.755247,-13.086918,0.000000,1.023810,-2.142857,180.000000,0.000000,F-22
4.710000,120.000000,30.011678,9999.136195,349.703856,-14.394905,0.000000,1.026190,-2.357143,180.000000,0.000000,F-22
4.720000,120.000000,30.011709,9998.979168,349.647573,-15.702691,0.000000,1.028571,-2.571429,180.000000,0.000000,F-22
4.730000,120.000000,30.011740,9998.809065,349.586400,-17.010257,0.000000,1.030952,-2.785714,180.000000,0.000000,F-22
4.740000,120.000000,30.011772,9998.625890,349.520337,-18.317585,0.000000,1.033333,-3.000000,180.000000,0.000000,F-22
4.750000,120.000000,30.011803,9998.429643,349.449385,-19.624657,0.000000,1.035714,-3.214286,180.000000,0.000000,F-22
4.760000,120.000000,30.011834,9998.220329,349.373545,-20.931454,0.000000,1.038095,-3.428571,180.000000,0.000000,F-22
4.770000,120.000000,30.011866,9997.997949,349.292819,-22.237958,0.000000,1.040476,-3.642857,180.000000,0.000000,F-22
4.780000,120.000000,30.011897,9997.762507,349.207206,-23.544152,0.000000,1.042857,-3.857143,180.000000,0.000000,F-22
4.790000,120.000000,30.011928,9997.514007,349.116709,-24.850016,0.000000,1.045238,-4.071429,180.000000,0.000000,F-22
4.800000,120.000000,30.011960,9997.252452,349.021329,-26.155533,0.000000,1.047619,-4.285714,180.000000,0.000000,F-22
4.810000,120.000000,30.011991,9996.977845,348.921067,-27.460684,0.000000,1.050000,-4.500000,180.000000,0.000000,F-22
4.820000,120.000000,30.012022,9996.690191,348.815924,-28.765450,0.000000,1.052381,-4.714286,180.000000,0.000000,F-22
4.830000,120.000000,30.012054,9996.389492,348.705902,-30.069814,0.000000,1.054762,-4.928571,180.000000,0.000000,F-22
4.840000,120.000000,30.012085,9996.075755,348.591003,-31.373758,0.000000,1.057143,-5.142857,180.000000,0.000000,F-22
4.850000,120.000000,30.012116,9995.748982,348.471228,-32.677263,0.000000,1.059524,-5.357143,180.000000,0.000000,F-22
4.860000,120.000000,30.012147,9995.409179,348.346578,-33.980311,0.000000,1.061905,-5.571429,180.000000,0.000000,F-22
4.870000,120.000000,30.012179,9995.056350,348.217056,-35.282883,0.000000,1.064286,-5.785714,180.000000,0.000000,F-22
4.880000,120.000000,30.012210,9994.690501,348.082663,-36.584962,0.000000,1.066667,-6.000000,180.000000,0.000000,F-22
4.890000,120.000000,30.012241,9994.311635,347.943402,-37.886529,0.000000,1.069048,-6.214286,180.000000,0.000000,F-22
4.900000,120.000000,30.012272,9993.919760,347.799273,-39.187567,0.000000,1.071429,-6.428571,180.000000,0.000000,F-22
4.910000,120.000000,30.012303,9993.514879,347.650280,-40.488056,0.000000,1.073810,-6.642857,180.000000,0.000000,F-22
4.920000,120.000000,30.012334,9993.096999,347.496424,-41.787979,0.000000,1.076190,-6.857143,180.000000,0.000000,F-22
4.930000,120.000000,30.012366,9992.666126,347.337708,-43.087317,0.000000,1.078571,-7.071429,180.000000,0.000000,F-22
4.940000,120.000000,30.012397,9992.222266,347.174133,-44.386053,0.000000,1.080952,-7.285714,180.000000,0.000000,F-22
4.950000,120.000000,30.012428,9991.765424,347.005701,-45.684167,0.000000,1.083333,-7.500000,180.000000,0.000000,F-22
4.960000,120.000000,30.012459,9991.295608,346.832417,-46.981643,0.000000,1.085714,-7.714286,180.000000,0.000000,F-22
4.970000,120.000000,30.012490,9990.812823,346.654280,-48.278462,0.000000,1.088095,-7.928571,180.000000,0.000000,F-22
4.980000,120.000000,30.012521,9990.317077,346.471295,-49.574605,0.000000,1.090476,-8.142857,180.000000,0.000000,F-22
4.990000,120.000000,30.012552,9989.808376,346.283464,-50.870055,0.000000,1.092857,-8.357143,180.000000,0.000000,F-22
5.000000,120.000000,30.012583,9989.286728,346.090789,-52.164793,0.000000,1.095238,-8.571429,180.000000,0.000000,F-22
5.010000,120.000000,30.012614,9988.752140,345.893273,-53.458802,0.000000,1.097619,-8.785714,180.000000,0.000000,F-22
5.020000,120.000000,30.012645,9988.204620,345.690919,-54.752063,0.000000,1.100000,-9.000000,180.000000,0.000000,F-22
5.030000,120.000000,30.012676,9987.644174,345.483730,-56.044558,0.000000,1.102381,-9.214286,180.000000,0.000000,F-22
5.040000,120.000000,30.012707,9987.070812,345.271708,-57.336269,0.000000,1.104762,-9.428571,180.000000,0.000000,F-22
5.050000,120.000000,30.012738,9986.484540,345.054856,-58.627178,0.000000,1.107143,-9.642857,180.000000,0.000000,F-22
5.060000,120.000000,30.012769,9985.885367,344.833179,-59.917267,0.000000,1.109524,-9.857143,180.000000,0.000000,F-22
5.070000,120.000000,30.012800,9985.273302,344.606677,-61.206518,0.000000,1.111905,-10.071429,180.000000,0.000000,F-22
5.080000,120.000000,30.012831,9984.648353,344.375356,-62.494913,0.000000,1.114286,-10.285714,180.000000,0.000000,F-22
5.090000,120.000000,30.012862,9984.010528,344.139218,-63.782434,0.000000,1.116667,-10.500000,180.000000,0.000000,F-22
5.100000,120.000000,30.012893,9983.359838,343.898266,-65.069063,0.000000,1.119048,-10.714286,180.000000,0.000000,F-22
5.110000,120.000000,30.012923,9982.696290,343.652503,-66.354781,0.000000,1.121429,-10.928571,180.000000,0.000000,F-22
5.120000,120.000000,30.012954,9982.019894,343.401934,-67.639571,0.000000,1.123810,-11.142857,180.000000,0.000000,F-22
5.130000,120.000000,30.012985,9981.330660,343.146562,-68.923415,0.000000,1.126190,-11.357143,180.000000,0.000000,F-22
5.140000,120.000000,30.013016,9980.628597,342.886389,-70.206296,0.000000,1.128571,-11.571429,180.000000,0.000000,F-22
5.150000,120.000000,30.013047,9979.913715,342.621421,-71.488194,0.000000,1.130952,-11.785714,180.000000,0.000000,F-22
5.160000,120.000000,30.013077,9979.186024,342.351660,-72.769092,0.000000,1.133333,-12.000000,180.000000,0.000000,F-22
5.170000,120.000000,30.013108,9978.445535,342.077111,-74.048972,0.000000,1.135714,-12.214286,180.000000,0.000000,F-22
5.180000,120.000000,30.013139,9977.692256,341.797777,-75.327817,0.000000,1.138095,-12.428571,180.000000,0.000000,F-22
5.190000,120.000000,30.013169,9976.926200,341.513661,-76.605608,0.000000,1.140476,-12.642857,180.000000,0.000000,F-22
5.200000,120.000000,30.013200,9976.147377,341.224769,-77.882327,0.000000,1.142857,-12.857143,180.000000,0.000000,F-22
5.210000,120.000000,30.013230,9975.355797,340.931104,-79.157957,0.000000,1.145238,-13.071429,180.000000,0.000000,F-22
